buildingid,address,borough,latitude,longitude,health_score,label,open_violation_count,class_a_count,class_b_count,class_c_count,weighted_severity,avg_resolution_days,violations_last_6mo,repeat_violation_types,component_open_count,component_severity,component_resolution_speed,component_recency,component_repeat_rate
208141,1055 BERGEN STREET,Brooklyn,40.6764195,-73.9514743,24.6,Poorly managed,246,32,149,65,525,172.4,0.0,13.0,0.0,0.0,85.41038788210888,50.0,0.0
808705,765 LINCOLN AVENUE,Brooklyn,40.672602,-73.865704,38.3,Poorly managed,224,43,163,18,423,264.1,0.0,3.0,8.979591836734691,19.428571428571427,77.60203326259685,50.0,76.92307692307692
288857,760 ELDERT LANE,Brooklyn,40.672602,-73.865704,51.1,Poorly managed,155,33,94,28,305,243.8,0.0,5.0,37.142857142857146,41.9047619047619,79.3331294513418,50.0,61.53846153846154
356641,1097 PROSPECT PLACE,Brooklyn,40.6740316,-73.940012,51.4,Poorly managed,148,25,86,37,308,224.8,0.0,6.0,40.0,41.333333333333336,80.94623877824786,50.0,53.84615384615385
296847,6623 FT HAMILTON PARKWAY,Brooklyn,40.6295731,-74.010282,53.1,Poorly managed,133,16,78,39,289,421.3,0.0,3.0,46.12244897959184,44.952380952380956,64.21845334744964,50.0,76.92307692307692
226821,357 COURT STREET,Brooklyn,40.6818533,-73.9958285,53.8,Poorly managed,133,33,76,24,257,335.5,0.0,6.0,46.12244897959184,51.04761904761905,71.5238365493757,50.0,53.84615384615385
270172,243 EAST 54 STREET,Brooklyn,40.6528971,-73.9263145,57.8,Poorly managed,118,9,93,16,243,110.5,0.0,9.0,52.244897959183675,53.714285714285715,90.67820658342792,50.0,30.76923076923077
1846,1600 3 AVENUE,Manhattan,40.7813876,-73.9525244,62.6,Poorly managed,103,11,63,29,224,83.3,0.0,7.0,58.36734693877551,57.33333333333333,92.99716231555051,50.0,46.15384615384615
808252,790 ELDERT LANE,Brooklyn,40.672602,-73.865704,62.7,Poorly managed,100,36,59,5,169,296.5,0.0,6.0,59.591836734693885,67.80952380952381,74.83989485632357,50.0,53.84615384615385
326066,675 LINCOLN AVENUE,Brooklyn,40.6728795,-73.865945,64.9,Poorly managed,106,15,69,22,219,208.8,0.0,1.0,57.14285714285714,58.285714285714285,82.30731566179253,50.0,92.3076923076923
41794,219 WEST 144 STREET,Manhattan,40.821606,-73.9405293,64.9,Poorly managed,57,20,33,4,98,722.0,0.0,5.0,77.14285714285715,81.33333333333333,38.62088535754824,50.0,61.53846153846154
60500,2344 DAVIDSON AVENUE,Bronx,40.8596862,-73.9039176,64.9,Poorly managed,97,12,65,20,202,366.2,0.0,0.0,60.816326530612244,61.523809523809526,68.91212139315371,50.0,100.0
297545,1593 FULTON STREET,Brooklyn,40.6802576,-73.9364767,64.9,Poorly managed,106,11,49,46,247,129.0,0.0,1.0,57.14285714285714,52.95238095238095,89.10329171396141,50.0,92.3076923076923
4083,2518 FREDERICK DOUGLASS BOULEVARD,Manhattan,40.8159878,-73.9465134,64.9,Poorly managed,73,9,60,4,141,485.3,0.0,5.0,70.61224489795919,73.14285714285714,58.76915437003405,50.0,61.53846153846154
112498,1607 TAYLOR AVENUE,Bronx,40.8408162,-73.8677389,65.0,Poorly managed,30,2,16,12,70,1077.0,0.0,3.0,88.16326530612245,86.66666666666667,8.399545970488088,50.0,76.92307692307692
296978,8501 FT HAMILTON PARKWAY,Brooklyn,40.6205765,-74.0235473,65.1,Poorly managed,89,26,55,8,160,485.1,0.0,1.0,64.08163265306122,69.52380952380952,58.7883087400681,50.0,92.3076923076923
121299,20 WEST 190 STREET,Bronx,40.8639188,-73.9010734,65.4,Poorly managed,83,11,25,47,202,392.8,0.0,1.0,66.53061224489795,61.523809523809526,66.64770415265671,50.0,92.3076923076923
90956,1315 LAFAYETTE AVENUE,Bronx,40.8171575,-73.8864713,65.8,Poorly managed,100,13,65,21,206,238.3,0.0,1.0,59.591836734693885,60.76190476190476,79.79459530254083,50.0,92.3076923076923
60496,2290 DAVIDSON AVENUE,Bronx,40.8590415,-73.9043125,66.9,Poorly managed,86,7,64,15,180,255.0,0.0,3.0,65.3061224489796,65.71428571428571,78.37566212637155,50.0,76.92307692307692
56480,456 CITY ISLAND AVENUE,Bronx,40.8511768,-73.7881669,67.8,Poorly managed,72,13,45,14,145,220.5,0.0,7.0,71.02040816326532,72.38095238095238,81.31384790011352,50.0,46.15384615384615
327587,912 LINDEN BOULEVARD,Brooklyn,40.6539468,-73.9240032,68.4,Poorly managed,84,7,46,30,189,290.7,0.0,0.0,66.12244897959184,64.0,75.34005693976667,50.0,100.0
437655,108-20 48 AVENUE,Queens,40.7459544,-73.8554258,68.5,Poorly managed,51,10,34,7,99,641.0,0.0,3.0,79.59183673469387,81.14285714285714,45.520159897349856,50.0,76.92307692307692
51777,3750 BRONX BOULEVARD,Bronx,40.8834094,-73.8661931,69.0,Poorly managed,85,22,34,28,174,247.0,0.0,1.0,65.71428571428571,66.85714285714286,79.05517759928281,50.0,92.3076923076923
33733,338 WEST 49 STREET,Manhattan,40.762288,-73.9886363,69.1,Poorly managed,60,8,39,13,125,556.6,0.0,1.0,75.91836734693878,76.19047619047619,52.700529701097246,50.0,92.3076923076923
803830,1330 5 AVENUE,Manhattan,40.7979643,-73.9489694,69.3,Poorly managed,37,4,27,6,76,756.7,0.0,3.0,85.3061224489796,85.52380952380952,35.667919977298524,50.0,76.92307692307692
335990,1904 MERMAID AVENUE,Brooklyn,40.5762468,-73.9860041,69.3,Poorly managed,36,15,16,5,62,440.0,0.0,11.0,85.71428571428572,88.19047619047619,62.62769580022702,50.0,15.384615384615385
213415,313 BRIGHTWATER COURT,Brooklyn,40.575885,-73.9633257,69.7,Poorly managed,49,6,36,7,99,629.9,0.0,2.0,80.40816326530611,81.14285714285714,46.46235338630345,50.0,84.61538461538461
42479,563 WEST 150 STREET,Manhattan,40.8295224,-73.9473734,69.7,Poorly managed,60,3,52,5,122,573.7,0.0,0.0,75.91836734693878,76.76190476190476,51.24858115777526,50.0,100.0
768256,79 OSGOOD AVENUE,Staten Island,40.6191133,-74.0830568,70.1,Poorly managed,59,10,35,14,122,103.7,0.0,10.0,76.32653061224491,76.76190476190476,91.2599318955732,50.0,23.076923076923073
24426,36 LUDLOW STREET,Manhattan,40.7160089,-73.9901881,70.1,Poorly managed,15,2,7,6,34,985.6,0.0,3.0,94.28571428571428,93.52380952380952,16.179736465478957,50.0,76.92307692307692
89826,2865 KINGSBRIDGE TERRACE,Bronx,40.8744683,-73.9029163,70.2,Poorly managed,81,1,64,16,177,148.5,0.0,2.0,67.34693877551021,66.28571428571428,87.44324631101021,50.0,84.61538461538461
119843,2179 WASHINGTON AVENUE,Bronx,40.8537962,-73.8946686,70.3,Poorly managed,71,2,40,28,166,248.9,0.0,2.0,71.42857142857143,68.38095238095238,78.89764305268078,50.0,84.61538461538461
60430,1726 DAVIDSON AVENUE,Bronx,40.8476086,-73.9132386,70.5,Poorly managed,72,4,44,24,164,322.7,0.0,0.0,71.02040816326532,68.76190476190476,72.61751123412064,50.0,100.0
326090,735 LINCOLN AVENUE,Brooklyn,40.672602,-73.865704,70.5,Poorly managed,63,14,34,15,127,494.1,0.0,0.0,74.69387755102042,75.80952380952381,58.019109154182935,50.0,100.0
51990,2100 BRONX PARK EAST,Bronx,40.8540248,-73.8686669,70.6,Poorly managed,40,9,24,7,78,701.1,0.0,2.0,84.08163265306122,85.14285714285714,40.40102562023675,50.0,84.61538461538461
878031,772 EAST 168 STREET,Bronx,40.8289702,-73.900764,70.6,Poorly managed,74,9,51,14,153,108.8,0.0,5.0,70.20408163265306,70.85714285714286,90.81875227550168,50.0,61.53846153846154
72216,655 EAST 234 STREET,Bronx,40.8948977,-73.8584802,70.7,Poorly managed,41,15,22,4,71,793.0,0.0,0.0,83.6734693877551,86.47619047619047,32.576617480136214,50.0,100.0
59919,2308 CROTONA AVENUE,Bronx,40.8521942,-73.8841523,70.8,Poorly managed,73,23,47,3,126,268.6,0.0,3.0,70.61224489795919,76.0,77.21518987341773,50.0,76.92307692307692
41488,613 WEST 140 STREET,Manhattan,40.8239149,-73.953737,71.0,Poorly managed,34,5,24,5,68,788.3,0.0,1.0,86.53061224489795,87.04761904761905,32.98032928841407,50.0,92.3076923076923
284491,467 EAST 96 STREET,Brooklyn,40.656417,-73.9158732,71.0,Poorly managed,60,10,16,34,144,212.8,0.0,5.0,75.91836734693878,72.57142857142857,81.9702491188243,50.0,61.53846153846154
283795,220 EAST 95 STREET,Brooklyn,40.6606791,-73.9228854,71.1,Poorly managed,11,2,5,4,24,1120.0,0.0,0.0,95.91836734693877,95.42857142857143,4.738933030646997,50.0,100.0
148688,527 40 STREET,Brooklyn,40.6504009,-74.0035317,71.2,Poorly managed,14,4,9,1,25,996.0,0.0,2.0,94.6938775510204,95.23809523809523,15.295119182746886,50.0,84.61538461538461
35045,104 WEST 73 STREET,Manhattan,40.7780386,-73.978762,71.3,Poorly managed,17,8,4,5,31,1047.0,0.0,0.0,93.46938775510203,94.0952380952381,10.953461975028379,50.0,100.0
66687,441 EAST 187 STREET,Bronx,40.858224,-73.8923516,71.5,Poorly managed,77,11,52,14,157,204.8,0.0,1.0,68.9795918367347,70.0952380952381,82.65271901764524,50.0,92.3076923076923
18338,325 EAST 92 STREET,Manhattan,40.7813306,-73.9475162,71.5,Poorly managed,55,2,27,26,134,108.0,0.0,8.0,77.9591836734694,74.47619047619047,90.89103291713961,50.0,38.46153846153846
119128,2160 WALTON AVENUE,Bronx,40.8555886,-73.9042127,71.5,Poorly managed,77,6,43,24,164,228.9,0.0,0.0,68.9795918367347,68.76190476190476,80.59573065797665,50.0,100.0
669816,40-57 JUNCTION BOULEVARD,Queens,40.7476907,-73.8682233,71.7,Poorly managed,47,11,13,21,100,383.8,0.0,5.0,81.22448979591836,80.95238095238095,67.41476812064214,50.0,61.53846153846154
180961,369 87 STREET,Brooklyn,40.6224361,-74.0291603,71.9,Poorly managed,41,1,27,13,94,571.5,0.0,2.0,83.6734693877551,82.0952380952381,51.43303064699205,50.0,84.61538461538461
631641,608 BEACH 19 STREET,Queens,40.6007319,-73.7516577,72.0,Poorly managed,14,10,0,4,22,911.7,0.0,3.0,94.6938775510204,95.80952380952381,22.472278005762682,50.0,76.92307692307692
37417,315 WEST 102 STREET,Manhattan,40.7996243,-73.9711666,72.0,Poorly managed,64,16,27,21,133,64.8,0.0,7.0,74.28571428571429,74.66666666666666,94.5707567930691,50.0,46.15384615384615
68047,826 EAST 214 STREET,Bronx,40.878715,-73.8607277,72.1,Poorly managed,8,3,2,3,16,1103.0,0.0,0.0,97.14285714285714,96.95238095238096,6.186152099886499,50.0,100.0
313113,541 HINSDALE STREET,Brooklyn,40.6616421,-73.897769,72.1,Poorly managed,11,0,10,1,23,1065.0,0.0,0.0,95.91836734693877,95.61904761904762,9.421112372304208,50.0,100.0
211170,14 BOULEVARD COURT,Brooklyn,40.5915202,-73.96614,72.2,Poorly managed,14,1,7,6,33,1007.0,0.0,0.0,94.6938775510204,93.71428571428572,14.358683314415444,50.0,100.0
119084,1881 WALTON AVENUE,Bronx,40.8493569,-73.9095892,72.2,Poorly managed,82,16,49,17,165,147.1,0.0,0.0,66.93877551020408,68.57142857142857,87.56320297182954,50.0,100.0
427549,47-07 39 STREET,Queens,40.7417178,-73.9262849,72.2,Poorly managed,2,0,2,0,4,1175.7,0.0,0.0,99.59183673469387,99.23809523809524,0.0,50.0,100.0
120419,2844 WEBB AVENUE,Bronx,40.8730883,-73.9004234,72.3,Poorly managed,63,10,40,13,129,380.4,0.0,0.0,74.69387755102042,75.42857142857142,67.70147559591373,50.0,100.0
325317,742 LEXINGTON AVENUE,Brooklyn,40.6899124,-73.9294829,72.3,Poorly managed,5,0,2,3,13,1124.0,0.0,0.0,98.36734693877551,97.52380952380952,4.3984108967082935,50.0,100.0
915878,142-28 38 AVENUE,Queens,40.7615832,-73.8258277,72.4,Poorly managed,11,2,3,6,26,992.0,0.0,1.0,95.91836734693877,95.04761904761905,15.63564131668559,50.0,92.3076923076923
17208,126 EAST 83 STREET,Manhattan,40.7775223,-73.9575532,72.5,Poorly managed,4,1,2,1,8,1132.0,0.0,0.0,98.77551020408163,98.47619047619047,3.717366628830876,50.0,100.0
72229,687 EAST 234 STREET,Bronx,40.8945285,-73.8573235,72.5,Poorly managed,3,1,0,2,7,1144.0,0.0,0.0,99.18367346938776,98.66666666666667,2.6958002270147663,50.0,100.0
342063,283 NEPTUNE AVENUE,Brooklyn,40.581383,-73.9638447,72.5,Poorly managed,22,13,1,8,39,687.1,0.0,5.0,91.42857142857143,92.57142857142857,41.59194097616346,50.0,61.53846153846154
395839,511 WILLIAMS AVENUE,Brooklyn,40.6633187,-73.8972438,72.5,Poorly managed,18,11,4,3,28,795.0,0.0,4.0,93.06122448979592,94.66666666666667,32.40635641316686,50.0,69.23076923076923
3436,2030 ADAM C POWELL BOULEVARD,Manhattan,40.8070115,-73.9502629,72.6,Poorly managed,65,9,41,15,136,284.7,0.0,1.0,73.87755102040816,74.0952380952381,75.85239675194273,50.0,92.3076923076923
380805,23 TEHAMA STREET,Brooklyn,40.6445065,-73.9815611,72.6,Poorly managed,9,4,1,4,18,970.8,0.0,2.0,96.73469387755102,96.57142857142857,17.436824183045584,50.0,84.61538461538461
28287,92 ST NICHOLAS AVENUE,Manhattan,40.8019785,-73.9522316,72.6,Poorly managed,21,0,17,4,46,898.5,0.0,0.0,91.83673469387756,91.23809523809524,23.595346197502842,50.0,100.0
41571,552 WEST 141 STREET,Manhattan,40.8233376,-73.951584,72.6,Poorly managed,6,2,2,2,12,1103.0,0.0,0.0,97.95918367346938,97.71428571428571,6.186152099886499,50.0,100.0
887066,557 KNICKERBOCKER AVENUE,Brooklyn,40.6971707,-73.9148877,72.6,Poorly managed,38,18,12,8,66,626.1,0.0,2.0,84.89795918367346,87.42857142857143,46.780804641190564,50.0,84.61538461538461
113352,1430 THIERIOT AVENUE,Bronx,40.8367069,-73.8650186,72.6,Poorly managed,6,1,5,0,11,1102.0,0.0,0.0,97.95918367346938,97.90476190476191,6.271282633371178,50.0,100.0
525832,75-20 113 STREET,Queens,40.7186426,-73.8359001,72.6,Poorly managed,13,2,9,2,26,1009.0,0.0,0.0,95.10204081632652,95.04761904761905,14.188422247446086,50.0,100.0
83769,1319 HARROD AVENUE,Bronx,40.8325321,-73.8746646,72.6,Poorly managed,5,0,2,3,13,1102.0,0.0,0.0,98.36734693877551,97.52380952380952,6.271282633371178,50.0,100.0
178965,2214 84 STREET,Brooklyn,40.6026112,-73.9922898,72.7,Poorly managed,6,3,2,1,10,1098.0,0.0,0.0,97.95918367346938,98.09523809523809,6.611804767309881,50.0,100.0
60967,3242 DECATUR AVENUE,Bronx,40.8751488,-73.8743709,72.7,Poorly managed,8,0,8,0,16,1069.5,0.0,0.0,97.14285714285714,96.95238095238096,9.038024971623159,50.0,100.0
140742,460 15 STREET,Brooklyn,40.6612687,-73.9809474,72.7,Poorly managed,1,1,0,0,1,1161.0,0.0,0.0,100.0,99.80952380952381,1.2485811577752637,50.0,100.0
637323,140-65 BEECH AVENUE,Queens,40.7556841,-73.8217933,72.8,Poorly managed,65,5,30,30,155,83.8,0.0,4.0,73.87755102040816,70.47619047619047,92.95208793834757,50.0,69.23076923076923
25234,349 MANHATTAN AVENUE,Manhattan,40.8043658,-73.9576553,72.8,Poorly managed,1,0,0,1,3,1148.0,0.0,0.0,100.0,99.42857142857143,2.355278093076052,50.0,100.0
389921,1754 WEST 1 STREET,Brooklyn,40.6050433,-73.9746071,72.8,Poorly managed,17,11,1,5,28,920.6,0.0,1.0,93.46938775510203,94.66666666666667,21.71183314415438,50.0,92.3076923076923
121042,90 WEST 174 STREET,Bronx,40.8468625,-73.917566,72.8,Poorly managed,4,1,3,0,7,1119.0,0.0,0.0,98.77551020408163,98.66666666666667,4.824063564131675,50.0,100.0
87096,2147 HONEYWELL AVENUE,Bronx,40.8465071,-73.881408,72.9,Poorly managed,40,3,33,4,81,598.4,0.0,1.0,84.08163265306122,84.57142857142857,49.14384983804435,50.0,92.3076923076923
90281,3202 KOSSUTH AVENUE,Bronx,40.8787448,-73.8825366,72.9,Poorly managed,13,0,6,7,33,975.0,0.0,0.0,95.10204081632652,93.71428571428572,17.08286038592509,50.0,100.0
374870,575 ST MARKS AVENUE,Brooklyn,40.6759185,-73.9546328,72.9,Poorly managed,62,14,27,20,128,126.9,0.0,5.0,75.10204081632654,75.61904761904762,89.28064699205449,50.0,61.53846153846154
976243,221 BAY 35 STREET,Brooklyn,40.5951098,-73.994552,73.0,Poorly managed,12,5,3,4,23,1001.0,0.0,0.0,95.51020408163265,95.61904761904762,14.869466515323504,50.0,100.0
306694,128 HANCOCK STREET,Brooklyn,40.6822271,-73.9506985,73.0,Poorly managed,8,6,1,1,11,1065.6,0.0,0.0,97.14285714285714,97.90476190476191,9.366027909461172,50.0,100.0
221772,753 CLASSON AVENUE,Brooklyn,40.6745123,-73.959771,73.1,Poorly managed,68,7,39,22,151,193.3,0.0,1.0,72.6530612244898,71.23809523809524,83.63172015271903,50.0,92.3076923076923
27376,835 RIVERSIDE DRIVE,Manhattan,40.8358156,-73.9465083,73.1,Poorly managed,24,3,8,13,58,809.9,0.0,0.0,90.61224489795919,88.95238095238095,31.1400397275823,50.0,100.0
77407,854 FAILE STREET,Bronx,40.8183439,-73.8871991,73.2,Poorly managed,3,0,3,0,6,1102.0,0.0,0.0,99.18367346938776,98.85714285714286,6.271282633371178,50.0,100.0
347751,555 OCEAN AVENUE,Brooklyn,40.6492962,-73.9603087,73.2,Poorly managed,48,6,29,13,103,507.2,0.0,0.0,80.81632653061224,80.38095238095238,56.91110016490695,50.0,100.0
205958,2500 BEDFORD AVENUE,Brooklyn,40.6423911,-73.9547889,73.2,Poorly managed,44,0,32,12,100,548.0,0.0,0.0,82.44897959183673,80.95238095238095,53.43583846107891,50.0,100.0
812576,177 SILVER LAKE ROAD,Staten Island,40.6329829,-74.0969666,73.2,Poorly managed,14,4,6,4,28,963.0,0.0,0.0,94.6938775510204,94.66666666666667,18.10442678774121,50.0,100.0
294155,791 FLUSHING AVENUE,Brooklyn,40.7011917,-73.9411705,73.2,Poorly managed,37,20,9,8,62,429.0,0.0,6.0,85.3061224489796,88.19047619047619,63.56413166855845,50.0,53.84615384615385
347611,2909 OCEAN AVENUE,Brooklyn,40.5901553,-73.9492903,73.3,Poorly managed,4,0,2,2,10,1081.0,0.0,0.0,98.77551020408163,98.09523809523809,8.059023836549384,50.0,100.0
461997,40-16 68 STREET,Queens,40.745725,-73.8973982,73.3,Poorly managed,2,0,2,0,4,1113.0,0.0,0.0,99.59183673469387,99.23809523809524,5.334846765039735,50.0,100.0
807749,1680 BEDFORD AVENUE,Brooklyn,40.6650615,-73.9581006,73.3,Poorly managed,69,4,41,24,158,109.0,0.0,2.0,72.24489795918367,69.9047619047619,90.80734527405299,50.0,84.61538461538461
394225,2827 WEST 15 STREET,Brooklyn,40.5783708,-73.9826342,73.4,Poorly managed,9,0,5,4,22,1001.0,0.0,0.0,96.73469387755102,95.80952380952381,14.869466515323504,50.0,100.0
115191,1212 TINTON AVENUE,Bronx,40.8294471,-73.9000045,73.4,Poorly managed,6,2,4,0,10,1061.0,0.0,0.0,97.95918367346938,98.09523809523809,9.761634506242912,50.0,100.0
27716,187 SPRING STREET,Manhattan,40.7252536,-74.0028069,73.4,Poorly managed,25,14,11,0,36,849.0,0.0,0.0,90.20408163265307,93.14285714285714,27.809307604994327,50.0,100.0
78284,1175 FINDLAY AVENUE,Bronx,40.8323148,-73.9129297,73.4,Poorly managed,43,8,24,11,89,524.2,0.0,1.0,82.85714285714285,83.04761904761905,55.45708547978696,50.0,92.3076923076923
430235,21-63 42 STREET,Queens,40.7721322,-73.9038381,73.4,Poorly managed,1,0,1,0,2,1119.0,0.0,0.0,100.0,99.61904761904762,4.824063564131675,50.0,100.0
140603,246 15 STREET,Brooklyn,40.6648956,-73.9884546,73.5,Poorly managed,1,1,0,0,1,1113.0,0.0,0.0,100.0,99.80952380952381,5.334846765039735,50.0,100.0
133149,3921 7 AVENUE,Brooklyn,40.6479883,-73.9997405,73.5,Poorly managed,4,0,4,0,8,982.0,0.0,2.0,98.77551020408163,98.47619047619047,16.486946651532353,50.0,84.61538461538461
77308,1021 FAILE STREET,Bronx,40.8245468,-73.8898985,73.5,Poorly managed,1,0,0,1,3,1109.0,0.0,0.0,100.0,99.42857142857143,5.675368898978439,50.0,100.0
77304,1017 FAILE STREET,Bronx,40.8245468,-73.8898985,73.5,Poorly managed,1,0,0,1,3,1109.0,0.0,0.0,100.0,99.42857142857143,5.675368898978439,50.0,100.0
130821,5807 5 AVENUE,Brooklyn,40.64028,-74.0149318,73.5,Poorly managed,8,0,7,1,17,1019.0,0.0,0.0,97.14285714285714,96.76190476190476,13.337116912599322,50.0,100.0
220683,9617 CHURCH AVENUE,Brooklyn,40.6562051,-73.9151634,73.6,Poorly managed,2,0,2,0,4,1095.0,0.0,0.0,99.59183673469387,99.23809523809524,6.867196367763906,50.0,100.0
363929,639 ROGERS AVENUE,Brooklyn,40.6558781,-73.9527723,73.6,Poorly managed,5,0,0,5,15,1038.8,0.0,0.0,98.36734693877551,97.14285714285714,11.648694665153247,50.0,100.0
946108,929 40 STREET,Brooklyn,40.6450568,-73.9946704,73.7,Poorly managed,1,0,0,1,3,1097.0,0.0,0.0,100.0,99.42857142857143,6.69693530079456,50.0,100.0
807535,331 ALABAMA AVENUE,Brooklyn,40.668243,-73.8974417,73.7,Poorly managed,14,0,13,1,29,928.0,0.0,0.0,94.6938775510204,94.47619047619048,21.083995459704884,50.0,100.0
108503,2710 SEDGWICK AVENUE,Bronx,40.8699503,-73.9027132,73.7,Poorly managed,16,4,1,11,39,887.1,0.0,0.0,93.87755102040816,92.57142857142857,24.562185827793105,50.0,100.0
205827,1989 BEDFORD AVENUE,Brooklyn,40.6563104,-73.9561166,73.7,Poorly managed,65,27,33,5,108,209.1,0.0,3.0,73.87755102040816,79.42857142857143,82.28676828279553,50.0,76.92307692307692
373744,1456 ST JOHNS PLACE,Brooklyn,40.6702465,-73.9301129,73.7,Poorly managed,3,1,1,1,6,1074.0,0.0,0.0,99.18367346938776,98.85714285714286,8.654937570942112,50.0,100.0
43589,546 WEST 188 STREET,Manhattan,40.8530763,-73.9296678,73.8,Poorly managed,5,0,2,3,13,1034.0,0.0,0.0,98.36734693877551,97.52380952380952,12.060158910329177,50.0,100.0
398649,305 WYONA STREET,Brooklyn,40.671406,-73.8925233,73.8,Poorly managed,5,0,0,5,15,1025.9,0.0,0.0,98.36734693877551,97.14285714285714,12.746210856646856,50.0,100.0
386795,516 VERMONT STREET,Brooklyn,40.6666578,-73.8928482,73.8,Poorly managed,50,7,25,18,111,167.2,0.0,6.0,80.0,78.85714285714286,85.84704880817253,50.0,53.84615384615385
442354,41-29 53 STREET,Queens,40.7448691,-73.9112179,73.8,Poorly managed,4,3,0,1,6,1059.0,0.0,0.0,98.77551020408163,98.85714285714286,9.931895573212268,50.0,100.0
10207,1 DIVISION STREET,Manhattan,40.7138711,-73.9972838,73.8,Poorly managed,7,1,3,3,16,1010.0,0.0,0.0,97.55102040816327,96.95238095238096,14.103291713961408,50.0,100.0
248,158 1 AVENUE,Manhattan,40.7284447,-73.9843052,73.8,Poorly managed,7,2,1,4,16,963.4,0.0,1.0,97.55102040816327,96.95238095238096,18.067942273390635,50.0,92.3076923076923
99849,1420 NOBLE AVENUE,Bronx,40.8353686,-73.8707744,73.8,Poorly managed,66,0,0,65,195,85.5,0.0,0.0,73.46938775510203,62.857142857142854,92.81033949024868,50.0,100.0
322267,556 LAFAYETTE AVENUE,Brooklyn,40.6894933,-73.9526692,73.8,Poorly managed,8,1,5,2,17,1002.0,0.0,0.0,97.14285714285714,96.76190476190476,14.784335981838826,50.0,100.0
744416,137 HEBERTON AVENUE,Staten Island,40.636682,-74.1310459,73.9,Poorly managed,14,3,4,7,32,908.2,0.0,0.0,94.6938775510204,93.9047619047619,22.766405663825783,50.0,100.0
56476,450 CITY ISLAND AVENUE,Bronx,40.8509954,-73.7880446,73.9,Poorly managed,3,0,1,2,8,1056.0,0.0,0.0,99.18367346938776,98.47619047619047,10.187287173666293,50.0,100.0
12507,235 EAST 21 STREET,Manhattan,40.7370822,-73.9823943,73.9,Poorly managed,3,0,3,0,6,1061.0,0.0,0.0,99.18367346938776,98.85714285714286,9.761634506242912,50.0,100.0
21474,262 ELIZABETH STREET,Manhattan,40.7239003,-73.9934195,73.9,Poorly managed,47,21,25,1,74,102.2,0.0,10.0,81.22448979591836,85.90476190476191,91.38217061032044,50.0,23.076923076923073
171084,586 74 STREET,Brooklyn,40.6291546,-74.0201279,73.9,Poorly managed,13,2,10,1,25,939.5,0.0,0.0,95.10204081632652,95.23809523809523,20.104994324631107,50.0,100.0
979293,1074 BEACH 22 STREET,Queens,40.6041085,-73.7544325,73.9,Poorly managed,6,5,1,0,7,1037.5,0.0,0.0,97.95918367346938,98.66666666666667,11.762202043132808,50.0,100.0
955594,825 MADISON STREET,Brooklyn,40.6880968,-73.9232215,74.0,Poorly managed,14,8,2,4,24,928.0,0.0,0.0,94.6938775510204,95.42857142857143,21.083995459704884,50.0,100.0
357703,1114 PUTNAM AVENUE,Brooklyn,40.6884227,-73.918072,74.2,Poorly managed,22,1,15,6,49,790.0,0.0,0.0,91.42857142857143,90.66666666666666,32.83200908059024,50.0,100.0
336121,2801 MERMAID AVENUE,Brooklyn,40.5757974,-73.9945032,74.2,Poorly managed,8,6,1,1,11,993.0,0.0,0.0,97.14285714285714,97.90476190476191,15.55051078320091,50.0,100.0
119055,1517 WALTON AVENUE,Bronx,40.8421832,-73.914395,74.2,Poorly managed,1,0,0,1,3,1067.0,0.0,0.0,100.0,99.42857142857143,9.250851305334852,50.0,100.0
104370,1912 PROSPECT AVENUE,Bronx,40.8433916,-73.8894372,74.3,Poorly managed,14,2,3,9,35,878.8,0.0,0.0,94.6938775510204,93.33333333333333,25.276221411838574,50.0,100.0
287574,1314 EASTERN PARKWAY,Brooklyn,40.6679869,-73.9247298,74.3,Poorly managed,1,0,0,1,3,1061.8,0.0,0.0,100.0,99.42857142857143,9.69353007945517,50.0,100.0
42983,604 WEST 162 STREET,Manhattan,40.8372743,-73.9434064,74.3,Poorly managed,1,0,0,1,3,1061.0,0.0,0.0,100.0,99.42857142857143,9.761634506242912,50.0,100.0
357479,236 PULASKI STREET,Brooklyn,40.6929716,-73.9419927,74.3,Poorly managed,45,9,24,12,93,267.5,0.0,5.0,82.04081632653062,82.28571428571428,77.31271282633372,50.0,61.53846153846154
38341,230 WEST 116 STREET,Manhattan,40.8035575,-73.9540907,74.4,Poorly managed,1,0,0,1,3,1057.0,0.0,0.0,100.0,99.42857142857143,10.102156640181615,50.0,100.0
64496,304 EAST 162 STREET,Bronx,40.8258676,-73.916714,74.4,Poorly managed,2,0,0,2,6,1039.0,0.0,0.0,99.59183673469387,98.85714285714286,11.634506242905795,50.0,100.0
74476,785 EAST TREMONT AVENUE,Bronx,40.8441945,-73.888095,74.4,Poorly managed,5,2,3,0,8,1015.0,0.0,0.0,98.36734693877551,98.47619047619047,13.677639046538026,50.0,100.0
47955,456 BARRETT AVENUE,Bronx,40.8155733,-73.8542991,74.4,Poorly managed,2,0,0,2,6,1041.0,0.0,0.0,99.59183673469387,98.85714285714286,11.464245175936439,50.0,100.0
832582,2159 BELMONT AVENUE,Bronx,40.8503627,-73.8889412,74.4,Poorly managed,1,1,0,0,1,1060.0,0.0,0.0,100.0,99.80952380952381,9.84676503972759,50.0,100.0
95904,1675 METROPOLITAN AVENUE,Bronx,40.8405696,-73.8588596,74.4,Poorly managed,3,0,3,0,6,1031.0,0.0,0.0,99.18367346938776,98.85714285714286,12.315550510783202,50.0,100.0
177742,544 82 STREET,Brooklyn,40.6234475,-74.0237645,74.4,Poorly managed,6,1,5,0,11,995.0,0.0,0.0,97.95918367346938,97.90476190476191,15.380249716231564,50.0,100.0
20753,72 EAST 127 STREET,Manhattan,40.8064598,-73.9389318,74.5,Poorly managed,2,0,2,0,4,1042.0,0.0,0.0,99.59183673469387,99.23809523809524,11.37911464245176,50.0,100.0
299407,425 GATES AVENUE,Brooklyn,40.6865251,-73.9499273,74.5,Poorly managed,61,8,36,16,128,134.9,0.0,3.0,75.51020408163265,75.61904761904762,88.59881447849666,50.0,76.92307692307692
25212,254 MANHATTAN AVENUE,Manhattan,40.8015117,-73.9590116,74.5,Poorly managed,1,1,0,0,1,1053.0,0.0,0.0,100.0,99.80952380952381,10.442678774120328,50.0,100.0
9530,135 CHRYSTIE STREET,Manhattan,40.7196514,-73.9934343,74.5,Poorly managed,31,1,17,13,74,498.9,0.0,3.0,87.75510204081633,85.90476190476191,57.61606129398411,50.0,76.92307692307692
33732,336 WEST 49 STREET,Manhattan,40.762255,-73.9885569,74.5,Poorly managed,1,0,1,0,2,1051.5,0.0,0.0,100.0,99.61904761904762,10.57037457434734,50.0,100.0
988651,2118 WALLACE AVENUE,Bronx,40.8533803,-73.8643774,74.5,Poorly managed,15,1,8,6,35,859.0,0.0,0.0,94.28571428571428,93.33333333333333,26.958002270147563,50.0,100.0
804521,326 EAST 78 STREET,Manhattan,40.7720784,-73.9547875,74.5,Poorly managed,1,0,0,1,3,1048.2,0.0,0.0,100.0,99.42857142857143,10.851305334846762,50.0,100.0
470558,34-57 73 STREET,Queens,40.7511911,-73.8928133,74.6,Poorly managed,4,0,1,3,11,1000.0,0.0,0.0,98.77551020408163,97.90476190476191,14.954597048808182,50.0,100.0
70285,755 EAST 224 STREET,Bronx,40.8866805,-73.8587653,74.6,Poorly managed,4,4,0,0,4,1019.4,0.0,0.0,98.77551020408163,99.23809523809524,13.306713150640503,50.0,100.0
398056,80 WOODRUFF AVENUE,Brooklyn,40.6532771,-73.9630562,74.6,Poorly managed,34,7,20,7,68,622.2,0.0,0.0,86.53061224489795,87.04761904761905,47.11896203808803,50.0,100.0
363176,382 ROCKAWAY PARKWAY,Brooklyn,40.6584439,-73.9176547,74.7,Poorly managed,3,0,1,2,8,1008.0,0.0,0.0,99.18367346938776,98.47619047619047,14.273552780930764,50.0,100.0
776657,2274 RICHMOND TERRACE,Staten Island,40.6395227,-74.1381785,74.7,Poorly managed,1,0,1,0,2,1042.0,0.0,0.0,100.0,99.61904761904762,11.37911464245176,50.0,100.0
263335,2020 EAST 41 STREET,Brooklyn,40.6239968,-73.9347687,74.7,Poorly managed,16,6,10,0,26,866.3,0.0,0.0,93.87755102040816,95.04761904761905,26.33887111753174,50.0,100.0
42001,611 WEST 145 STREET,Manhattan,40.8270181,-73.9511079,74.7,Poorly managed,5,3,2,0,7,1001.0,0.0,0.0,98.36734693877551,98.66666666666667,14.869466515323504,50.0,100.0
37259,229 WEST 97 STREET,Manhattan,40.7953232,-73.9706845,74.7,Poorly managed,8,1,6,1,16,951.8,0.0,0.0,97.14285714285714,96.95238095238096,19.057888762769593,50.0,100.0
995341,1181 SHERMAN AVENUE,Bronx,40.8332425,-73.9165241,74.7,Poorly managed,53,18,18,17,105,155.6,0.0,5.0,78.77551020408163,80.0,86.84125182422572,50.0,61.53846153846154
805921,100 WEST 130 STREET,Manhattan,40.8108812,-73.9436276,74.8,Poorly managed,3,0,3,0,6,1010.0,0.0,0.0,99.18367346938776,98.85714285714286,14.103291713961408,50.0,100.0
43113,509 WEST 169 STREET,Manhattan,40.8409077,-73.9369811,74.8,Poorly managed,2,0,2,0,4,1023.0,0.0,0.0,99.59183673469387,99.23809523809524,12.996594778660619,50.0,100.0
55319,4447 CARPENTER AVENUE,Bronx,40.9009825,-73.8561412,74.8,Poorly managed,3,0,2,1,7,1007.0,0.0,0.0,99.18367346938776,98.66666666666667,14.358683314415444,50.0,100.0
373078,23 SPENCER PLACE,Brooklyn,40.681342,-73.9542109,74.8,Poorly managed,9,0,1,8,26,867.8,0.0,1.0,96.73469387755102,95.04761904761905,26.206256372765925,50.0,92.3076923076923
230673,1140 DEAN STREET,Brooklyn,40.6767353,-73.9519139,74.8,Poorly managed,3,2,0,1,5,1015.0,0.0,0.0,99.18367346938776,99.04761904761905,13.677639046538026,50.0,100.0
675313,60-70 LINDEN STREET,Queens,40.7093613,-73.8992612,74.8,Poorly managed,1,1,0,0,1,1039.0,0.0,0.0,100.0,99.80952380952381,11.634506242905795,50.0,100.0
34131,204 WEST 55 STREET,Manhattan,40.764277,-73.9817193,74.8,Poorly managed,10,1,8,1,20,918.0,0.0,0.0,96.3265306122449,96.19047619047619,21.935300794551647,50.0,100.0
205767,167 BEDFORD AVENUE,Brooklyn,40.7181861,-73.9570463,74.8,Poorly managed,11,3,3,5,24,902.0,0.0,0.0,95.91836734693877,95.42857142857143,23.297389330306473,50.0,100.0
969720,228 WEST 116 STREET,Manhattan,40.8035327,-73.9540076,74.9,Poorly managed,48,7,34,7,96,201.2,0.0,5.0,80.81632653061224,81.71428571428572,82.95970488081726,50.0,61.53846153846154
383418,170 UNION STREET,Brooklyn,40.6835359,-74.0007716,74.9,Poorly managed,13,4,8,1,23,884.0,0.0,0.0,95.10204081632652,95.61904761904762,24.829738933030654,50.0,100.0
3581,2394 ADAM C POWELL BOULEVARD,Manhattan,40.8184421,-73.9419195,74.9,Poorly managed,36,3,21,12,81,468.2,0.0,2.0,85.71428571428572,84.57142857142857,60.226513988115116,50.0,84.61538461538461
77929,3303 FENTON AVENUE,Bronx,40.8742434,-73.8472859,74.9,Poorly managed,1,0,0,1,3,1028.0,0.0,0.0,100.0,99.42857142857143,12.570942111237237,50.0,100.0
42041,412 WEST 146 STREET,Manhattan,40.8248581,-73.9452236,74.9,Poorly managed,16,8,4,4,28,851.0,0.0,0.0,93.87755102040816,94.66666666666667,27.63904653802498,50.0,100.0
434423,30-70 45 STREET,Queens,40.7604164,-73.9126158,74.9,Poorly managed,2,0,0,2,6,1011.8,0.0,0.0,99.59183673469387,98.85714285714286,13.954313280363229,50.0,100.0
285035,440 EAST 98 STREET,Brooklyn,40.6576187,-73.9151508,74.9,Poorly managed,1,0,0,1,3,1027.0,0.0,0.0,100.0,99.42857142857143,12.656072644721917,50.0,100.0
448034,150-30 59 AVENUE,Queens,40.7413916,-73.8179161,74.9,Poorly managed,7,2,4,1,13,953.0,0.0,0.0,97.55102040816327,97.52380952380952,18.955732122587975,50.0,100.0
70988,645 EAST 228 STREET,Bronx,40.8907344,-73.8610787,74.9,Poorly managed,12,3,2,7,28,874.7,0.0,0.0,95.51020408163265,94.66666666666667,25.621823027192427,50.0,100.0
267353,166 EAST 51 STREET,Brooklyn,40.6579774,-73.9303276,74.9,Poorly managed,10,0,0,9,27,892.6,0.0,0.0,96.3265306122449,94.85714285714286,24.097616345062434,50.0,100.0
665371,135-18 HOR HARDING EXPRESSWAY SR SOUTH,Queens,40.7424648,-73.8304933,75.0,Poorly managed,6,0,3,3,15,949.0,0.0,0.0,97.95918367346938,97.14285714285714,19.29625425652668,50.0,100.0
678838,17-21 MENAHAN STREET,Queens,40.7041014,-73.9114886,75.0,Poorly managed,1,0,0,0,0,1030.0,0.0,0.0,100.0,100.0,12.40068104426788,50.0,100.0
203767,6301 BAY PARKWAY,Brooklyn,40.614706,-73.9800746,75.0,Poorly managed,3,0,3,0,6,997.0,0.0,0.0,99.18367346938776,98.85714285714286,15.209988649262208,50.0,100.0
347364,1997 OCEAN AVENUE,Brooklyn,40.6131202,-73.9536382,75.0,Poorly managed,2,0,2,0,4,1007.9,0.0,0.0,99.59183673469387,99.23809523809524,14.279228149829748,50.0,100.0
427974,43-09 40 STREET,Queens,40.7452019,-73.9236934,75.0,Poorly managed,1,0,0,1,3,1019.0,0.0,0.0,100.0,99.42857142857143,13.337116912599322,50.0,100.0
804979,475 LENOX AVENUE,Manhattan,40.8133863,-73.941895,75.0,Poorly managed,2,0,2,0,4,1010.0,0.0,0.0,99.59183673469387,99.23809523809524,14.103291713961408,50.0,100.0
281983,236 EAST 92 STREET,Brooklyn,40.6595553,-73.9253196,75.0,Poorly managed,52,14,28,10,100,336.4,0.0,1.0,79.18367346938776,80.95238095238095,71.44934733257662,50.0,92.3076923076923
662156,10-53 HARTMAN LANE,Queens,40.6031091,-73.7661366,75.0,Poorly managed,2,0,0,2,6,1003.0,0.0,0.0,99.59183673469387,98.85714285714286,14.699205448354146,50.0,100.0
324058,1157 LENOX ROAD,Brooklyn,40.6600114,-73.9179699,75.0,Poorly managed,4,3,0,1,6,993.0,0.0,0.0,98.77551020408163,98.85714285714286,15.55051078320091,50.0,100.0
320734,219 KINGSLAND AVENUE,Brooklyn,40.7240696,-73.9416951,75.0,Poorly managed,56,17,32,7,102,166.2,0.0,4.0,77.55102040816327,80.57142857142857,85.93564395639206,50.0,69.23076923076923
437467,48-15 47 STREET,Queens,40.7386905,-73.9183602,75.0,Poorly managed,1,0,0,1,3,1021.0,0.0,0.0,100.0,99.42857142857143,13.166855845629977,50.0,100.0
784070,298 ST MARKS PLACE,Staten Island,40.6424608,-74.0787727,75.1,Poorly managed,49,7,25,17,108,332.0,0.0,1.0,80.40816326530611,79.42857142857143,71.82179341657208,50.0,92.3076923076923
672189,37-33 COLLEGE POINT BOULEVARD,Queens,40.7593697,-73.8342801,75.1,Poorly managed,11,1,7,3,24,882.5,0.0,0.0,95.91836734693877,95.42857142857143,24.957434733257667,50.0,100.0
119895,2410 WASHINGTON AVENUE,Bronx,40.8577445,-73.8903171,75.1,Poorly managed,40,5,26,9,84,505.0,0.0,0.0,84.08163265306122,84.0,57.09045536489283,50.0,100.0
980380,87-06 219 STREET,Queens,40.7296511,-73.7462306,75.1,Poorly managed,1,0,1,0,2,1018.0,0.0,0.0,100.0,99.61904761904762,13.422247446084,50.0,100.0
843738,183-18 140 AVENUE,Queens,40.6719921,-73.7606102,75.1,Poorly managed,36,5,30,1,68,538.1,0.0,1.0,85.71428571428572,87.04761904761905,54.277809307605,50.0,92.3076923076923
112734,1055 TELLER AVENUE,Bronx,40.8289862,-73.9138591,75.1,Poorly managed,15,1,11,3,32,833.0,0.0,0.0,94.28571428571428,93.9047619047619,29.171396140749152,50.0,100.0
407062,45-01 21 STREET,Queens,40.7471777,-73.9473518,75.1,Poorly managed,2,0,0,2,6,1001.0,0.0,0.0,99.59183673469387,98.85714285714286,14.869466515323504,50.0,100.0
363935,645 ROGERS AVENUE,Brooklyn,40.6557683,-73.952758,75.1,Poorly managed,31,6,11,14,70,294.0,0.0,7.0,87.75510204081633,86.66666666666667,75.05675368898979,50.0,46.15384615384615
58966,647 COURTLANDT AVENUE,Bronx,40.8190566,-73.918706,75.1,Poorly managed,11,2,4,5,25,881.0,0.0,0.0,95.91836734693877,95.23809523809523,25.08513053348468,50.0,100.0
972586,2417 ALBEMARLE ROAD,Brooklyn,40.64824,-73.9543309,75.1,Poorly managed,1,0,1,0,2,1017.0,0.0,0.0,100.0,99.61904761904762,13.50737797956868,50.0,100.0
24425,26 LUDLOW STREET,Manhattan,40.7154325,-73.9904804,75.1,Poorly managed,23,10,7,6,42,568.5,0.0,4.0,91.02040816326532,92.0,51.688422247446084,50.0,69.23076923076923
900160,287 MCGUINNESS BOULEVARD,Brooklyn,40.731993,-73.9521627,75.1,Poorly managed,2,0,0,2,6,999.0,0.0,0.0,99.59183673469387,98.85714285714286,15.03972758229285,50.0,100.0
324398,992 LENOX ROAD,Brooklyn,40.6564354,-73.9225119,75.1,Poorly managed,9,2,5,2,18,918.0,0.0,0.0,96.73469387755102,96.57142857142857,21.935300794551647,50.0,100.0
548986,41-18 48 STREET,Queens,40.7458146,-73.9165795,75.2,Poorly managed,1,1,0,0,1,1014.0,0.0,0.0,100.0,99.80952380952381,13.762769580022704,50.0,100.0
87209,3750 HUDSON MANOR TERRACE,Bronx,40.8888956,-73.914899,75.2,Poorly managed,71,6,61,4,140,122.3,0.0,0.0,71.42857142857143,73.33333333333334,89.67082860385925,50.0,100.0
812493,256A JERSEY STREET,Staten Island,40.6412141,-74.0871596,75.2,Poorly managed,1,0,0,1,3,1010.7,0.0,0.0,100.0,99.42857142857143,14.046538024971634,50.0,100.0
25160,10 MANHATTAN AVENUE,Manhattan,40.7951593,-73.9636745,75.2,Poorly managed,56,0,46,9,119,289.8,0.0,0.0,77.55102040816327,77.33333333333333,75.41430192962542,50.0,100.0
981900,2583 OCEAN AVENUE,Brooklyn,40.5985194,-73.9508792,75.2,Poorly managed,28,12,10,6,50,231.4,0.0,10.0,88.9795918367347,90.47619047619048,80.38349278417382,50.0,23.076923076923073
658211,1826 GEORGE STREET,Queens,40.6997284,-73.9006462,75.2,Poorly managed,1,0,1,0,2,1010.0,0.0,0.0,100.0,99.61904761904762,14.103291713961408,50.0,100.0
97606,2705 MORRIS AVENUE,Bronx,40.8680423,-73.8959187,75.2,Poorly managed,33,3,14,16,79,523.6,0.0,1.0,86.93877551020408,84.95238095238096,55.51274775168078,50.0,92.3076923076923
313892,775 THOMAS S BOYLAND STREET,Brooklyn,40.6615792,-73.9112675,75.2,Poorly managed,2,0,0,2,6,994.0,0.0,0.0,99.59183673469387,98.85714285714286,15.465380249716231,50.0,100.0
65697,978 EAST 174 STREET,Bronx,40.8363393,-73.8855026,75.2,Poorly managed,2,0,1,1,5,994.0,0.0,0.0,99.59183673469387,99.04761904761905,15.465380249716231,50.0,100.0
671856,146-42 LAKEWOOD AVENUE,Queens,40.6925416,-73.8005529,75.3,Poorly managed,3,0,0,3,9,969.2,0.0,0.0,99.18367346938776,98.28571428571429,17.576617480136214,50.0,100.0
890194,154 SCHAEFER STREET,Brooklyn,40.6887338,-73.9084512,75.3,Poorly managed,6,0,4,2,14,937.0,0.0,0.0,97.95918367346938,97.33333333333334,20.3178206583428,50.0,100.0
211560,738 BRADFORD STREET,Brooklyn,40.660733,-73.8882694,75.3,Poorly managed,2,0,0,2,6,990.0,0.0,0.0,99.59183673469387,98.85714285714286,15.805902383654946,50.0,100.0
234671,750 DRIGGS AVENUE,Brooklyn,40.7124345,-73.9610611,75.4,Poorly managed,2,0,2,0,4,988.0,0.0,0.0,99.59183673469387,99.23809523809524,15.976163450624291,50.0,100.0
52288,2040 BRONXDALE AVENUE,Bronx,40.8511184,-73.8665002,75.4,Poorly managed,28,4,16,8,60,600.1,0.0,1.0,88.9795918367347,88.57142857142857,48.99520173356723,50.0,92.3076923076923
988780,1669 EAST 19 STREET,Brooklyn,40.60936,-73.9542134,75.4,Poorly managed,11,9,1,1,14,892.0,0.0,0.0,95.91836734693877,97.33333333333334,24.148694665153236,50.0,100.0
81438,1971 GRAND AVENUE,Bronx,40.8522098,-73.9110421,75.4,Poorly managed,3,2,1,0,4,982.3,0.0,0.0,99.18367346938776,99.23809523809524,16.45856980703746,50.0,100.0
804153,262 BROOME STREET,Manhattan,40.7183035,-73.9903248,75.4,Poorly managed,8,0,5,3,19,856.0,0.0,1.0,97.14285714285714,96.38095238095238,27.2133938706016,50.0,92.3076923076923
938574,75-26 BELL BOULEVARD,Queens,40.7372914,-73.7584956,75.4,Poorly managed,1,0,0,1,3,997.0,0.0,0.0,100.0,99.42857142857143,15.209988649262208,50.0,100.0
4277,202 8 AVENUE,Manhattan,40.743509,-73.9994334,75.5,Poorly managed,1,0,1,0,2,995.0,0.0,0.0,100.0,99.61904761904762,15.380249716231564,50.0,100.0
99237,1672 NELSON AVENUE,Bronx,40.8474691,-73.9176303,75.5,Poorly managed,11,0,11,0,22,868.0,0.0,0.0,95.91836734693877,95.80952380952381,26.191827468785476,50.0,100.0
872505,164-41 108 DRIVE,Queens,40.6970364,-73.7876,75.5,Poorly managed,1,0,0,1,3,993.3,0.0,0.0,100.0,99.42857142857143,15.522133938706018,50.0,100.0
633386,311 BEACH 69 STREET,Queens,40.5911341,-73.798321,75.5,Poorly managed,1,0,0,0,0,999.0,0.0,0.0,100.0,100.0,15.03972758229285,50.0,100.0
296355,249 FRONT STREET,Brooklyn,40.7025121,-73.983334,75.5,Poorly managed,7,0,6,1,15,915.0,0.0,0.0,97.55102040816327,97.14285714285714,22.190692395005684,50.0,100.0
892525,185 SOUTH 4 STREET,Brooklyn,40.7112321,-73.9604594,75.5,Poorly managed,1,0,1,0,2,994.0,0.0,0.0,100.0,99.61904761904762,15.465380249716231,50.0,100.0
516157,144-01 105 AVENUE,Queens,40.692195,-73.8081374,75.5,Poorly managed,1,0,1,0,2,993.0,0.0,0.0,100.0,99.61904761904762,15.55051078320091,50.0,100.0
292098,1119 FLATBUSH AVENUE,Brooklyn,40.6432073,-73.9574152,75.6,Poorly managed,3,0,3,0,6,960.4,0.0,0.0,99.18367346938776,98.85714285714286,18.32216449838471,50.0,100.0
357324,846 PROSPECT PLACE,Brooklyn,40.6739452,-73.9486209,75.6,Poorly managed,63,11,38,13,126,195.1,0.0,0.0,74.69387755102042,76.0,83.47976512704095,50.0,100.0
95898,1610 METROPOLITAN AVENUE,Bronx,40.8386125,-73.8565255,75.6,Poorly managed,4,0,1,3,11,941.0,0.0,0.0,98.77551020408163,97.90476190476191,19.977298524404098,50.0,100.0
576303,90-27 171 STREET,Queens,40.7083884,-73.7888876,75.6,Poorly managed,4,0,2,1,7,950.0,0.0,0.0,98.77551020408163,98.66666666666667,19.211123723042,50.0,100.0
661226,1738 GROVE STREET,Queens,40.703524,-73.9101693,75.7,Poorly managed,2,0,0,2,6,964.0,0.0,0.0,99.59183673469387,98.85714285714286,18.019296254256535,50.0,100.0
469247,34-57 72 STREET,Queens,40.7510986,-73.893741,75.7,Poorly managed,25,0,20,5,55,658.8,0.0,0.0,90.20408163265307,89.52380952380953,43.997729852440415,50.0,100.0
53731,1554 BRYANT AVENUE,Bronx,40.8342979,-73.8860988,75.8,Poorly managed,1,0,0,1,3,976.3,0.0,0.0,100.0,99.42857142857143,16.96935300794552,50.0,100.0
116845,1805 UNIVERSITY AVENUE,Bronx,40.8510109,-73.9153668,75.8,Poorly managed,56,14,25,16,112,183.5,0.0,2.0,77.55102040816327,78.66666666666666,84.46367763904654,50.0,84.61538461538461
107508,1411 ROSEDALE AVENUE,Bronx,40.8351513,-73.8703231,75.8,Poorly managed,6,0,2,4,16,903.0,0.0,0.0,97.95918367346938,96.95238095238096,23.212258796821793,50.0,100.0
37609,206 WEST 106 STREET,Manhattan,40.8005179,-73.9666333,75.8,Poorly managed,1,1,0,0,1,979.0,0.0,0.0,100.0,99.80952380952381,16.74233825198639,50.0,100.0
67369,409 EAST 204 STREET,Bronx,40.8709626,-73.8763567,75.8,Poorly managed,2,0,0,2,6,957.7,0.0,0.0,99.59183673469387,98.85714285714286,18.558456299659486,50.0,100.0
76560,2461 ELM PLACE,Bronx,40.8607924,-73.894625,75.9,Poorly managed,5,0,3,2,12,915.4,0.0,0.0,98.36734693877551,97.71428571428571,22.15664018161181,50.0,100.0
53854,2413 BUCK STREET,Bronx,40.8407004,-73.8515263,75.9,Poorly managed,8,0,7,1,17,877.8,0.0,0.0,97.14285714285714,96.76190476190476,25.3534206996182,50.0,100.0
112657,630 TAYLOR AVENUE,Bronx,40.8182615,-73.8619453,75.9,Poorly managed,13,1,11,1,26,818.0,0.0,0.0,95.10204081632652,95.04761904761905,30.448354143019294,50.0,100.0
686473,1870 PALMETTO STREET,Queens,40.7040587,-73.906057,75.9,Poorly managed,13,1,7,5,30,803.3,0.0,0.0,95.10204081632652,94.28571428571428,31.70027375308807,50.0,100.0
60040,861 CROTONA PARK NORTH,Bronx,40.839612,-73.8893025,75.9,Poorly managed,2,0,2,0,4,959.0,0.0,0.0,99.59183673469387,99.23809523809524,18.444948921679917,50.0,100.0
304708,101 GREENPOINT AVENUE,Brooklyn,40.7302545,-73.9561942,75.9,Poorly managed,4,1,0,3,10,926.0,0.0,0.0,98.77551020408163,98.09523809523809,21.254256526674244,50.0,100.0
811027,71-12 164 STREET,Queens,40.7299178,-73.8057665,75.9,Poorly managed,20,17,0,3,26,588.0,0.0,4.0,92.24489795918367,95.04761904761905,50.02837684449489,50.0,69.23076923076923
122197,1206 WESTCHESTER AVENUE,Bronx,40.8257565,-73.8890943,75.9,Poorly managed,64,13,34,17,132,108.9,0.0,1.0,74.28571428571429,74.85714285714286,90.81299659477867,50.0,92.3076923076923
231379,552 DEAN STREET,Brooklyn,40.6807878,-73.9720184,75.9,Poorly managed,36,8,19,9,73,517.3,0.0,0.0,85.71428571428572,86.09523809523809,56.04506722514429,50.0,100.0
33344,410 WEST 46 STREET,Manhattan,40.761108,-73.9916578,76.0,Poorly managed,16,0,12,4,36,759.7,0.0,0.0,93.87755102040816,93.14285714285714,35.407581098034534,50.0,100.0
349395,185 OXFORD STREET,Brooklyn,40.5787807,-73.9376568,76.0,Poorly managed,1,0,1,0,2,962.0,0.0,0.0,100.0,99.61904761904762,18.18955732122588,50.0,100.0
1007016,37-32 89 STREET,Queens,40.7494196,-73.8779104,76.0,Poorly managed,8,7,0,1,10,891.0,0.0,0.0,97.14285714285714,98.09523809523809,24.233825198637916,50.0,100.0
43022,438 WEST 164 STREET,Manhattan,40.8365551,-73.9378851,76.0,Poorly managed,58,3,34,21,134,140.8,0.0,1.0,76.73469387755102,74.47619047619047,88.10064320847522,50.0,92.3076923076923
320566,814 KINGS HIGHWAY,Brooklyn,40.6064348,-73.96395,76.0,Poorly managed,53,13,33,7,100,269.1,0.0,1.0,78.77551020408163,80.95238095238095,77.177277886699,50.0,92.3076923076923
427305,61-05 39 AVENUE,Queens,40.7473238,-73.9022029,76.0,Poorly managed,13,0,6,7,33,793.5,0.0,0.0,95.10204081632652,93.71428571428572,32.53405221339387,50.0,100.0
84076,2254 HAVILAND AVENUE,Bronx,40.8305684,-73.8484557,76.0,Poorly managed,1,0,0,1,3,959.0,0.0,0.0,100.0,99.42857142857143,18.444948921679917,50.0,100.0
793726,443 WESTERVELT AVENUE,Staten Island,40.6373836,-74.0818257,76.0,Poorly managed,2,0,2,0,4,950.0,0.0,0.0,99.59183673469387,99.23809523809524,19.211123723042,50.0,100.0
104195,4018 PRATT AVENUE,Bronx,40.8913212,-73.833651,76.0,Poorly managed,5,1,2,2,11,910.6,0.0,0.0,98.36734693877551,97.90476190476191,22.56161829090321,50.0,100.0
386987,12 VERNON AVENUE,Brooklyn,40.6940987,-73.9517067,76.0,Poorly managed,2,0,0,2,6,948.4,0.0,0.0,99.59183673469387,98.85714285714286,19.349460839954602,50.0,100.0
845250,99-65 64 ROAD,Queens,40.7313091,-73.8537978,76.0,Poorly managed,6,0,3,3,15,892.9,0.0,0.0,97.95918367346938,97.14285714285714,24.06923950056754,50.0,100.0
389377,312 WEBSTER AVENUE,Brooklyn,40.6330966,-73.9697362,76.1,Poorly managed,14,0,8,6,34,775.3,0.0,0.0,94.6938775510204,93.52380952380952,34.08322994483014,50.0,100.0
822036,61-33 65 STREET,Queens,40.7153073,-73.8970554,76.1,Poorly managed,9,3,4,2,17,860.0,0.0,0.0,96.73469387755102,96.76190476190476,26.872871736662884,50.0,100.0
81456,2015 GRAND AVENUE,Bronx,40.8533976,-73.9101802,76.1,Poorly managed,46,8,25,13,97,370.7,0.0,0.0,81.63265306122449,81.52380952380952,68.5232416613104,50.0,100.0
369481,325 SHEPHERD AVENUE,Brooklyn,40.6771452,-73.8812658,76.1,Poorly managed,2,0,0,2,6,937.7,0.0,0.0,99.59183673469387,98.85714285714286,20.258750492251398,50.0,100.0
118284,1115 VIRGINIA AVENUE,Bronx,40.82895,-73.8601164,76.1,Poorly managed,1,0,1,0,2,957.2,0.0,0.0,100.0,99.61904761904762,18.595088226189247,50.0,100.0
120425,2856 WEBB AVENUE,Bronx,40.8733929,-73.9003325,76.1,Poorly managed,42,8,27,7,83,348.9,0.0,2.0,83.26530612244898,84.19047619047619,70.38308740068105,50.0,84.61538461538461
43301,574 WEST 176 STREET,Manhattan,40.8455783,-73.9353755,76.1,Poorly managed,41,6,27,8,84,444.1,0.0,0.0,83.6734693877551,84.0,62.27821255750045,50.0,100.0
28363,113 STANTON STREET,Manhattan,40.7209464,-73.987424,76.2,Poorly managed,1,0,1,0,2,950.0,0.0,0.0,100.0,99.61904761904762,19.211123723042,50.0,100.0
21309,551 EDGECOMBE AVENUE,Manhattan,40.8338302,-73.9390295,76.2,Poorly managed,39,0,17,22,100,403.3,0.0,0.0,84.48979591836735,80.95238095238095,65.74914869466515,50.0,100.0
932939,40-48 97 STREET,Queens,40.7479072,-73.8679558,76.2,Poorly managed,4,0,2,2,10,908.9,0.0,0.0,98.77551020408163,98.09523809523809,22.712116912599324,50.0,100.0
637146,67-03 BEACH CHANNEL DRIVE,Queens,40.5925854,-73.7963542,76.2,Poorly managed,21,6,6,9,45,550.7,0.0,3.0,91.83673469387756,91.42857142857143,53.20761531317718,50.0,76.92307692307692
475557,138-10 77 AVENUE,Queens,40.7204366,-73.8222194,76.2,Poorly managed,10,4,4,2,18,846.0,0.0,0.0,96.3265306122449,96.57142857142857,28.064699205448363,50.0,100.0
138958,3419 14 AVENUE,Brooklyn,40.6416189,-73.9814358,76.2,Poorly managed,2,0,2,0,4,939.0,0.0,0.0,99.59183673469387,99.23809523809524,20.147559591373444,50.0,100.0
192138,1701 AVENUE N,Brooklyn,40.6161189,-73.9572416,76.2,Poorly managed,25,0,21,4,54,634.0,0.0,0.0,90.20408163265307,89.71428571428571,46.114041530346526,50.0,100.0
60071,2116 CROTONA PARKWAY,Bronx,40.8461497,-73.8835303,76.2,Poorly managed,25,3,22,0,47,654.5,0.0,0.0,90.20408163265307,91.04761904761904,44.36856944088463,50.0,100.0
203956,8687 BAY PARKWAY,Brooklyn,40.5999324,-73.9954663,76.3,Poorly managed,2,0,0,2,6,925.9,0.0,0.0,99.59183673469387,98.85714285714286,21.262769580022713,50.0,100.0
97691,904 MORRIS AVENUE,Bronx,40.8262196,-73.9177542,76.3,Poorly managed,3,0,1,2,8,913.0,0.0,0.0,99.18367346938776,98.47619047619047,22.36095346197503,50.0,100.0
804188,137 CHRYSTIE STREET,Manhattan,40.7196514,-73.9934343,76.3,Poorly managed,15,2,6,7,35,571.6,0.0,4.0,94.28571428571428,93.33333333333333,51.42238933030647,50.0,69.23076923076923
365027,972 RUTLAND ROAD,Brooklyn,40.6619005,-73.9270903,76.3,Poorly managed,10,0,9,1,21,829.0,0.0,0.0,96.3265306122449,96.0,29.511918274687854,50.0,100.0
215900,1488 BUSHWICK AVENUE,Brooklyn,40.6828864,-73.9071324,76.3,Poorly managed,4,1,2,0,5,918.0,0.0,0.0,98.77551020408163,99.04761904761905,21.935300794551647,50.0,100.0
430275,22-61 42 STREET,Queens,40.7703636,-73.9059996,76.3,Poorly managed,5,0,4,1,11,895.0,0.0,0.0,98.36734693877551,97.90476190476191,23.89330306469921,50.0,100.0
28776,51 TIEMANN PLACE,Manhattan,40.8158257,-73.9595121,76.4,Poorly managed,56,12,38,6,106,161.4,0.0,2.0,77.55102040816327,79.80952380952381,86.34916130659605,50.0,84.61538461538461
287777,225 EASTERN PARKWAY,Brooklyn,40.6718283,-73.9608216,76.4,Poorly managed,2,2,0,0,2,933.6,0.0,0.0,99.59183673469387,99.61904761904762,20.604168816427617,50.0,100.0
883735,28 MELROSE STREET,Brooklyn,40.6978838,-73.9351869,76.4,Poorly managed,7,6,0,1,9,879.0,0.0,0.0,97.55102040816327,98.28571428571429,25.255391600454036,50.0,100.0
113658,3060 3 AVENUE,Bronx,40.8206713,-73.9123452,76.4,Poorly managed,1,1,0,0,1,941.0,0.0,0.0,100.0,99.80952380952381,19.977298524404098,50.0,100.0
66750,689 EAST 187 STREET,Bronx,40.854462,-73.8849003,76.4,Poorly managed,2,0,1,1,5,927.0,0.0,0.0,99.59183673469387,99.04761904761905,21.169125993189564,50.0,100.0
930118,1221 MORRISON AVENUE,Bronx,40.8301447,-73.8750594,76.4,Poorly managed,9,6,2,1,13,850.0,0.0,0.0,96.73469387755102,97.52380952380952,27.724177071509647,50.0,100.0
449737,86-16 60 AVENUE,Queens,40.7306294,-73.8731749,76.4,Poorly managed,7,1,1,5,18,808.3,0.0,1.0,97.55102040816327,96.57142857142857,31.274435616092834,50.0,92.3076923076923
377666,261 STOCKHOLM STREET,Brooklyn,40.7019507,-73.9207279,76.5,Poorly managed,1,0,1,0,2,937.0,0.0,0.0,100.0,99.61904761904762,20.3178206583428,50.0,100.0
661845,2207 HARMAN STREET,Queens,40.7117422,-73.9072546,76.5,Poorly managed,54,8,33,13,113,110.6,0.0,3.0,78.36734693877551,78.47619047619048,90.67165808085218,50.0,76.92307692307692
649335,28-15 DEERFIELD ROAD,Queens,40.5970431,-73.7621176,76.5,Poorly managed,1,1,0,0,1,939.0,0.0,0.0,100.0,99.80952380952381,20.147559591373444,50.0,100.0
807925,327 CHESTER STREET,Brooklyn,40.6634554,-73.9096898,76.5,Poorly managed,2,0,0,2,6,917.0,0.0,0.0,99.59183673469387,98.85714285714286,22.020431328036327,50.0,100.0
358086,334 PUTNAM AVENUE,Brooklyn,40.6840456,-73.9478848,76.5,Poorly managed,14,3,8,3,28,770.5,0.0,0.0,94.6938775510204,94.66666666666667,34.49205448354144,50.0,100.0
59887,2120 CROTONA AVENUE,Bronx,40.8486573,-73.8880152,76.5,Poorly managed,46,4,31,11,99,340.9,0.0,0.0,81.63265306122449,81.14285714285714,71.06434995197766,50.0,100.0
226494,2112 CORTELYOU ROAD,Brooklyn,40.6438032,-73.9581571,76.5,Poorly managed,1,0,0,1,3,934.2,0.0,0.0,100.0,99.42857142857143,20.559023836549382,50.0,100.0
66858,72 EAST 190 STREET,Bronx,40.8628104,-73.8983817,76.5,Poorly managed,4,0,1,3,11,889.1,0.0,0.0,98.77551020408163,97.90476190476191,24.394627317442307,50.0,100.0
284481,452 EAST 96 STREET,Brooklyn,40.6565659,-73.9168677,76.6,Poorly managed,7,6,1,0,8,869.0,0.0,0.0,97.55102040816327,98.47619047619047,26.1066969353008,50.0,100.0
805326,1466 ST NICHOLAS AVENUE,Manhattan,40.8507092,-73.9323089,76.6,Poorly managed,2,0,0,2,6,912.0,0.0,0.0,99.59183673469387,98.85714285714286,22.44608399545971,50.0,100.0
65868,110 EAST 177 STREET,Bronx,40.8493031,-73.9074929,76.6,Poorly managed,55,11,32,12,111,143.2,0.0,2.0,77.9591836734694,78.85714285714286,87.89284194097617,50.0,84.61538461538461
160996,1817 59 STREET,Brooklyn,40.6224609,-73.9859548,76.6,Poorly managed,2,0,0,2,6,910.0,0.0,0.0,99.59183673469387,98.85714285714286,22.616345062429065,50.0,100.0
255052,2717 NEWKIRK AVENUE,Brooklyn,40.6400919,-73.9504882,76.6,Poorly managed,36,2,28,6,76,427.0,0.0,1.0,85.71428571428572,85.52380952380952,63.73439273552781,50.0,92.3076923076923
42999,448 WEST 163 STREET,Manhattan,40.8361221,-73.9390925,76.6,Poorly managed,1,0,1,0,2,928.0,0.0,0.0,100.0,99.61904761904762,21.083995459704884,50.0,100.0
704832,1820 WOODBINE STREET,Queens,40.7026892,-73.9062681,76.6,Poorly managed,1,0,1,0,2,929.8,0.0,0.0,100.0,99.61904761904762,20.92893627371494,50.0,100.0
9693,89 CLINTON STREET,Manhattan,40.7187421,-73.9855413,76.6,Poorly managed,1,0,0,1,3,926.2,0.0,0.0,100.0,99.42857142857143,21.232973893303065,50.0,100.0
175428,601 79 STREET,Brooklyn,40.6249851,-74.0208615,76.6,Poorly managed,6,0,5,1,13,861.0,0.0,0.0,97.95918367346938,97.52380952380952,26.787741203178207,50.0,100.0
267556,210 EAST 51 STREET,Brooklyn,40.6569014,-73.9302134,76.6,Poorly managed,53,10,20,23,119,227.2,0.0,0.0,78.77551020408163,77.33333333333333,80.74029896689048,50.0,100.0
363190,400 ROCKAWAY PARKWAY,Brooklyn,40.6580813,-73.9172479,76.6,Poorly managed,1,0,0,1,3,929.0,0.0,0.0,100.0,99.42857142857143,20.998864926220207,50.0,100.0
426318,28-07 38 STREET,Queens,40.7655066,-73.9144611,76.6,Poorly managed,1,1,0,0,1,931.8,0.0,0.0,100.0,99.80952380952381,20.76475595913735,50.0,100.0
224969,2534 CONEY ISLAND AVENUE,Brooklyn,40.5949964,-73.9613276,76.7,Poorly managed,1,0,0,1,3,919.3,0.0,0.0,100.0,99.42857142857143,21.821793416572078,50.0,100.0
3434,2026 ADAM C POWELL BOULEVARD,Manhattan,40.8068221,-73.9503895,76.7,Poorly managed,1,1,0,0,1,929.0,0.0,0.0,100.0,99.80952380952381,20.998864926220207,50.0,100.0
48919,1339 BEACH AVENUE,Bronx,40.8341237,-73.8670005,76.7,Poorly managed,4,0,2,2,10,879.0,0.0,0.0,98.77551020408163,98.09523809523809,25.255391600454036,50.0,100.0
70715,920 EAST 226 STREET,Bronx,40.8861854,-73.8535657,76.7,Poorly managed,2,0,2,0,4,907.8,0.0,0.0,99.59183673469387,99.23809523809524,22.80788876276959,50.0,100.0
312312,285 HICKS STREET,Brooklyn,40.6927693,-73.996787,76.7,Poorly managed,2,2,0,0,2,914.0,0.0,0.0,99.59183673469387,99.61904761904762,22.275822928490353,50.0,100.0
167,14 1 AVENUE,Manhattan,40.7233344,-73.9880729,76.7,Poorly managed,1,0,0,1,3,920.2,0.0,0.0,100.0,99.42857142857143,21.743757094211126,50.0,100.0
42319,216 WEST 149 STREET,Manhattan,40.8244842,-73.9385286,76.7,Poorly managed,8,0,0,8,24,764.0,0.0,1.0,97.14285714285714,95.42857142857143,35.04390943306053,50.0,92.3076923076923
53938,3073 BUHRE AVENUE,Bronx,40.8480681,-73.8302928,76.7,Poorly managed,3,0,3,0,6,899.2,0.0,0.0,99.18367346938776,98.85714285714286,23.53575482406357,50.0,100.0
8670,305 BROOME STREET,Manhattan,40.7185891,-73.9924388,76.7,Poorly managed,8,1,4,3,18,828.2,0.0,0.0,97.14285714285714,96.57142857142857,29.581570529357148,50.0,100.0
292897,735 FLATBUSH AVENUE,Brooklyn,40.6550847,-73.9594295,76.7,Poorly managed,30,12,5,13,61,190.0,0.0,8.0,88.16326530612245,88.38095238095238,83.91032917139614,50.0,38.46153846153846
84625,2531 HERING AVENUE,Bronx,40.8639157,-73.8541679,76.7,Poorly managed,6,0,3,3,15,854.0,0.0,0.0,97.95918367346938,97.14285714285714,27.383654937570945,50.0,100.0
47755,3935 BARNES AVENUE,Bronx,40.8859418,-73.8585209,76.7,Poorly managed,2,0,0,2,6,903.0,0.0,0.0,99.59183673469387,98.85714285714286,23.212258796821793,50.0,100.0
60001,1660 CROTONA PARK EAST,Bronx,40.8368324,-73.8901094,76.7,Poorly managed,4,1,3,0,7,887.3,0.0,0.0,98.77551020408163,98.66666666666667,24.55253703060948,50.0,100.0
379259,148 MARCUS GARVEY BOULEVARD,Brooklyn,40.6931272,-73.9403554,76.8,Poorly managed,1,0,0,1,3,917.0,0.0,0.0,100.0,99.42857142857143,22.020431328036327,50.0,100.0
358444,763 PUTNAM AVENUE,Brooklyn,40.6864522,-73.9310298,76.8,Poorly managed,1,1,0,0,1,922.2,0.0,0.0,100.0,99.80952380952381,21.575860764283018,50.0,100.0
395860,559 WILLIAMS AVENUE,Brooklyn,40.6620448,-73.8969177,76.8,Poorly managed,8,0,4,4,20,773.9,0.0,1.0,97.14285714285714,96.19047619047619,34.20355656451003,50.0,92.3076923076923
931791,108-54 48 AVENUE,Queens,40.7463042,-73.8542521,76.8,Poorly managed,2,1,0,1,4,906.0,0.0,0.0,99.59183673469387,99.23809523809524,22.95686719636777,50.0,100.0
81471,2062 GRAND AVENUE,Bronx,40.8544833,-73.908628,76.8,Poorly managed,2,0,1,1,5,902.0,0.0,0.0,99.59183673469387,99.04761904761905,23.297389330306473,50.0,100.0
872887,149 BEACH 26 STREET,Queens,40.593609,-73.7593033,76.9,Poorly managed,12,0,2,10,34,697.7,0.0,1.0,95.51020408163265,93.52380952380952,40.69371485890769,50.0,92.3076923076923
6869,20 BEAVER STREET,Manhattan,40.7048182,-74.0122917,76.9,Poorly managed,2,0,1,1,5,894.0,0.0,0.0,99.59183673469387,99.04761904761905,23.97843359818389,50.0,100.0
40973,124 WEST 137 STREET,Manhattan,40.8157657,-73.9413546,76.9,Poorly managed,40,4,28,8,84,359.2,0.0,1.0,84.08163265306122,84.0,69.50198637911464,50.0,92.3076923076923
414024,23-24 28 AVENUE,Queens,40.769952,-73.9248131,76.9,Poorly managed,1,0,1,0,2,912.7,0.0,0.0,100.0,99.61904761904762,22.384170880198127,50.0,100.0
334478,25 MAC DONOUGH STREET,Brooklyn,40.6810472,-73.9454102,76.9,Poorly managed,38,2,26,10,84,417.6,0.0,0.0,84.89795918367346,84.0,64.53758081231801,50.0,100.0
650804,43-60 DOUGLASTON PARKWAY,Queens,40.7664607,-73.7460723,77.0,Poorly managed,1,0,0,1,3,900.9,0.0,0.0,100.0,99.42857142857143,23.39103291713962,50.0,100.0
809648,580 SUTTER AVENUE,Brooklyn,40.668243,-73.8974417,77.0,Poorly managed,2,0,0,2,6,887.0,0.0,0.0,99.59183673469387,98.85714285714286,24.574347332576618,50.0,100.0
928930,433 COLUMBIA STREET,Brooklyn,40.6773628,-74.0061073,77.0,Poorly managed,34,15,15,4,57,246.0,0.0,6.0,86.53061224489795,89.14285714285714,79.14301929625425,50.0,53.84615384615385
283209,237 EAST 94 STREET,Brooklyn,40.6602921,-73.9229291,77.1,Poorly managed,3,0,0,3,9,865.4,0.0,0.0,99.18367346938776,98.28571428571429,26.410734554888926,50.0,100.0
89075,1468 JESUP AVENUE,Bronx,40.8425929,-73.9192808,77.1,Poorly managed,2,1,0,1,4,889.0,0.0,0.0,99.59183673469387,99.23809523809524,24.404086265607273,50.0,100.0
64085,803 EAST 156 STREET,Bronx,40.8178787,-73.9039129,77.1,Poorly managed,2,0,0,2,6,879.0,0.0,0.0,99.59183673469387,98.85714285714286,25.255391600454036,50.0,100.0
97622,2775 MORRIS AVENUE,Bronx,40.8697235,-73.8944409,77.1,Poorly managed,18,1,1,16,51,640.2,0.0,0.0,93.06122448979592,90.28571428571428,45.5838535754824,50.0,100.0
77578,793 FAIRMOUNT PLACE,Bronx,40.8427046,-73.8885529,77.1,Poorly managed,61,6,48,7,123,131.7,0.0,0.0,75.51020408163265,76.57142857142857,88.87222312307443,50.0,100.0
53116,3565 BRUCKNER BOULEVARD,Bronx,40.8483009,-73.8281163,77.1,Poorly managed,13,4,2,7,29,739.4,0.0,0.0,95.10204081632652,94.47619047619048,37.14351589103293,50.0,100.0
11726,611 EAST 11 STREET,Manhattan,40.7273761,-73.9786627,77.1,Poorly managed,3,2,0,1,5,877.4,0.0,0.0,99.18367346938776,99.04761904761905,25.389168153072806,50.0,100.0
324033,1092 LENOX ROAD,Brooklyn,40.6583437,-73.9195651,77.1,Poorly managed,2,2,0,0,2,894.9,0.0,0.0,99.59183673469387,99.61904761904762,23.902762012864176,50.0,100.0
230432,855 DE KALB AVENUE,Brooklyn,40.6926724,-73.9421048,77.1,Poorly managed,24,6,14,4,46,612.0,0.0,0.0,90.61224489795919,91.23809523809524,47.98524404086266,50.0,100.0
10086,29 CORNELIA STREET,Manhattan,40.7315007,-74.0024932,77.1,Poorly managed,1,0,0,1,3,896.9,0.0,0.0,100.0,99.42857142857143,23.73439273552781,50.0,100.0
70351,924 EAST 224 STREET,Bronx,40.8847013,-73.854144,77.1,Poorly managed,15,6,2,7,31,720.0,0.0,0.0,94.28571428571428,94.0952380952381,38.7911464245176,50.0,100.0
351715,1873 PARK PLACE,Brooklyn,40.6718037,-73.9151688,77.1,Poorly managed,53,11,37,5,100,118.8,0.0,3.0,78.77551020408163,80.95238095238095,89.96769405395966,50.0,76.92307692307692
236244,270 EAST 2 STREET,Brooklyn,40.6447887,-73.9789557,77.1,Poorly managed,10,0,7,3,23,775.0,0.0,0.0,96.3265306122449,95.61904761904762,34.10896708286039,50.0,100.0
314175,553 HOWARD AVENUE,Brooklyn,40.6688646,-73.9197434,77.1,Poorly managed,59,7,31,20,129,130.1,0.0,0.0,76.32653061224491,75.42857142857142,89.00770655355757,50.0,100.0
17060,16 EAST 82 STREET,Manhattan,40.7783443,-73.9614667,77.2,Poorly managed,1,0,1,0,2,894.0,0.0,0.0,100.0,99.61904761904762,23.97843359818389,50.0,100.0
7690,1 CENTRAL PARK WEST,Manhattan,40.7691078,-73.9816205,77.2,Poorly managed,2,1,0,1,4,882.0,0.0,0.0,99.59183673469387,99.23809523809524,25.0,50.0,100.0
111425,1279 REV JAMES POLITE AVENUE,Bronx,40.8298743,-73.8957833,77.2,Poorly managed,3,1,1,1,6,869.2,0.0,0.0,99.18367346938776,98.85714285714286,26.08541430192963,50.0,100.0
667197,102-05 JAMAICA AVENUE,Queens,40.6954182,-73.8451279,77.2,Poorly managed,47,12,35,0,82,157.7,0.0,4.0,81.22448979591836,84.38095238095238,86.66288308740069,50.0,69.23076923076923
22728,25 MONTGOMERY STREET,Manhattan,40.7134968,-73.984435,77.3,Poorly managed,2,1,1,0,3,877.0,0.0,0.0,99.59183673469387,99.42857142857143,25.425652667423382,50.0,100.0
898637,406 15 STREET,Brooklyn,40.6621968,-73.9828719,77.3,Poorly managed,2,0,2,0,4,873.0,0.0,0.0,99.59183673469387,99.23809523809524,25.766174801362098,50.0,100.0
49263,771 BECK STREET,Bronx,40.8168476,-73.8985602,77.3,Poorly managed,1,0,1,0,2,886.0,0.0,0.0,100.0,99.61904761904762,24.659477866061298,50.0,100.0
397061,95 WILSON AVENUE,Brooklyn,40.7018151,-73.9272414,77.3,Poorly managed,1,1,0,0,1,893.0,0.0,0.0,100.0,99.80952380952381,24.06356413166857,50.0,100.0
226663,145 COURT STREET,Brooklyn,40.6892064,-73.9923123,77.3,Poorly managed,2,0,0,2,6,871.0,0.0,0.0,99.59183673469387,98.85714285714286,25.936435868331444,50.0,100.0
378210,2181 STRAUSS STREET,Brooklyn,40.6606206,-73.913954,77.3,Poorly managed,3,0,0,3,9,857.0,0.0,0.0,99.18367346938776,98.28571428571429,27.12826333711692,50.0,100.0
8007,3287 BROADWAY,Manhattan,40.8186242,-73.9566563,77.3,Poorly managed,5,0,2,3,13,785.2,0.0,1.0,98.36734693877551,97.52380952380952,33.23637911464245,50.0,92.3076923076923
128140,7923 3 AVENUE,Brooklyn,40.6278764,-74.0289249,77.3,Poorly managed,34,10,16,8,66,427.0,0.0,1.0,86.53061224489795,87.42857142857143,63.73439273552781,50.0,92.3076923076923
335889,58 MENAHAN STREET,Brooklyn,40.6938264,-73.9209719,77.3,Poorly managed,2,0,0,2,6,867.0,0.0,0.0,99.59183673469387,98.85714285714286,26.276958002270156,50.0,100.0
132592,725 6 AVENUE,Brooklyn,40.6592416,-73.9916742,77.3,Poorly managed,1,0,0,1,3,884.0,0.0,0.0,100.0,99.42857142857143,24.829738933030654,50.0,100.0
42768,512 WEST 158 STREET,Manhattan,40.8336701,-73.9425964,77.4,Poorly managed,50,8,23,19,111,88.9,0.0,3.0,80.0,78.85714285714286,92.51675149207279,50.0,76.92307692307692
357354,930 PROSPECT PLACE,Brooklyn,40.6738396,-73.9458163,77.4,Poorly managed,47,3,12,32,123,77.7,0.0,3.0,81.22448979591836,76.57142857142857,93.47392952882363,50.0,76.92307692307692
224310,421 COLUMBIA STREET,Brooklyn,40.6776757,-74.0059559,77.4,Poorly managed,3,2,1,0,4,862.0,0.0,0.0,99.18367346938776,99.23809523809524,26.702610669693538,50.0,100.0
132509,6821 6 AVENUE,Brooklyn,40.6323718,-74.0181941,77.4,Poorly managed,3,2,1,0,4,862.6,0.0,0.0,99.18367346938776,99.23809523809524,26.65295119182747,50.0,100.0
46082,809 ARNOW AVENUE,Bronx,40.8680489,-73.8628507,77.4,Poorly managed,5,1,3,1,10,829.6,0.0,0.0,98.36734693877551,98.09523809523809,29.46327225555376,50.0,100.0
811351,20-05 CORNAGA AVENUE,Queens,40.6021278,-73.7536476,77.4,Poorly managed,6,6,0,0,6,837.0,0.0,0.0,97.95918367346938,98.85714285714286,28.830874006810447,50.0,100.0
63536,444 EAST 147 STREET,Bronx,40.8138075,-73.9170073,77.4,Poorly managed,2,0,1,1,5,869.6,0.0,0.0,99.59183673469387,99.04761904761905,26.055618615209998,50.0,100.0
128232,8517 3 AVENUE,Brooklyn,40.6236737,-74.0306378,77.4,Poorly managed,17,0,13,4,38,667.0,0.0,0.0,93.46938775510203,92.76190476190476,43.301882330684826,50.0,100.0
160301,328 58 STREET,Brooklyn,40.6426509,-74.0188023,77.4,Poorly managed,14,5,3,6,29,711.5,0.0,0.0,94.6938775510204,94.47619047619048,39.51475595913735,50.0,100.0
87421,3077 HULL AVENUE,Bronx,40.8723156,-73.8788382,77.4,Poorly managed,2,0,0,2,6,866.0,0.0,0.0,99.59183673469387,98.85714285714286,26.362088535754825,50.0,100.0
300719,1158 GLENMORE AVENUE,Brooklyn,40.6773592,-73.8661559,77.4,Poorly managed,35,1,30,4,73,392.4,0.0,1.0,86.12244897959184,86.09523809523809,66.67990919409762,50.0,92.3076923076923
930514,3455 CORSA AVENUE,Bronx,40.8776783,-73.8483231,77.4,Poorly managed,3,0,1,2,8,852.0,0.0,0.0,99.18367346938776,98.47619047619047,27.5539160045403,50.0,100.0
807542,469 ALABAMA AVENUE,Brooklyn,40.6646137,-73.8966182,77.4,Poorly managed,4,0,2,2,10,839.7,0.0,0.0,98.77551020408163,98.09523809523809,28.603859250851315,50.0,100.0
218532,108 CENTRAL AVENUE,Brooklyn,40.7002217,-73.9294287,77.4,Poorly managed,1,0,0,1,3,881.8,0.0,0.0,100.0,99.42857142857143,25.015478278815394,50.0,100.0
72659,731 EAST 236 STREET,Bronx,40.8954365,-73.8547679,77.4,Poorly managed,41,4,32,5,83,97.3,0.0,6.0,83.6734693877551,84.19047619047619,91.803145775904,50.0,53.84615384615385
439673,45-15 50 AVENUE,Queens,40.7376459,-73.92009,77.4,Poorly managed,1,0,0,1,3,877.0,0.0,0.0,100.0,99.42857142857143,25.425652667423382,50.0,100.0
84286,3018 HEATH AVENUE,Bronx,40.8762437,-73.9025159,77.5,Poorly managed,35,4,9,22,88,390.3,0.0,0.0,86.12244897959184,83.23809523809524,66.86057510404844,50.0,100.0
930837,3474 WILSON AVENUE,Bronx,40.8768475,-73.8510153,77.5,Poorly managed,2,0,0,2,6,858.0,0.0,0.0,99.59183673469387,98.85714285714286,27.04313280363224,50.0,100.0
396540,856 WILLOUGHBY AVENUE,Brooklyn,40.6953881,-73.9339921,77.5,Poorly managed,47,10,24,13,97,188.9,0.0,2.0,81.22448979591836,81.52380952380952,84.00200820745656,50.0,84.61538461538461
422480,75-08 35 AVENUE,Queens,40.7508954,-73.8906807,77.5,Poorly managed,2,1,0,1,4,862.8,0.0,0.0,99.59183673469387,99.23809523809524,26.6316685584563,50.0,100.0
134276,4201 8 AVENUE,Brooklyn,40.6453616,-73.9988901,77.5,Poorly managed,2,0,2,0,4,865.0,0.0,0.0,99.59183673469387,99.23809523809524,26.4472190692395,50.0,100.0
164200,1053 64 STREET,Brooklyn,40.6299302,-74.0059696,77.5,Poorly managed,40,19,16,5,66,233.5,0.0,4.0,84.08163265306122,87.42857142857143,80.20431328036322,50.0,69.23076923076923
57765,1200 COLLEGE AVENUE,Bronx,40.8325182,-73.9132077,77.5,Poorly managed,61,4,47,10,128,93.2,0.0,0.0,75.51020408163265,75.61904761904762,92.15443030345645,50.0,100.0
27583,152 SHERMAN AVENUE,Manhattan,40.8648992,-73.9234259,77.6,Poorly managed,1,0,1,0,2,873.1,0.0,0.0,100.0,99.61904761904762,25.754670675215518,50.0,100.0
109773,923 SIMPSON STREET,Bronx,40.8207129,-73.8932938,77.6,Poorly managed,16,3,9,4,33,676.3,0.0,0.0,93.87755102040816,93.71428571428572,42.50851305334847,50.0,100.0
324084,167 LENOX ROAD,Brooklyn,40.6542702,-73.9540853,77.6,Poorly managed,10,0,1,9,29,642.4,0.0,2.0,96.3265306122449,94.47619047619048,45.39650190898773,50.0,84.61538461538461
121253,23 WEST 184 STREET,Bronx,40.8610443,-73.9032865,77.6,Poorly managed,33,7,20,6,65,465.0,0.0,0.0,86.93877551020408,87.61904761904762,60.499432463110104,50.0,100.0
363148,320 ROCKAWAY PARKWAY,Brooklyn,40.6596086,-73.9189472,77.6,Poorly managed,22,6,13,3,41,609.5,0.0,0.0,91.42857142857143,92.19047619047619,48.19807037457436,50.0,100.0
66844,664 EAST 189 STREET,Bronx,40.8563058,-73.8842175,77.6,Poorly managed,42,2,31,9,91,233.8,0.0,2.0,83.26530612244898,82.66666666666667,80.18006397688578,50.0,84.61538461538461
388648,266 WASHINGTON AVENUE,Brooklyn,40.6905221,-73.9667857,77.6,Poorly managed,3,0,0,3,9,836.8,0.0,0.0,99.18367346938776,98.28571428571429,28.847900113507386,50.0,100.0
979963,241 ATLANTIC AVENUE,Brooklyn,40.6894917,-73.9909492,77.6,Poorly managed,6,6,0,0,6,825.0,0.0,0.0,97.95918367346938,98.85714285714286,29.852440408626567,50.0,100.0
12040,230 EAST 14 STREET,Manhattan,40.7325127,-73.9860831,77.7,Poorly managed,11,0,4,7,29,715.3,0.0,0.0,95.91836734693877,94.47619047619048,39.18744373556695,50.0,100.0
301997,182 GRAHAM AVENUE,Brooklyn,40.7079859,-73.9429932,77.7,Poorly managed,2,0,0,2,6,844.0,0.0,0.0,99.59183673469387,98.85714285714286,28.23496027241771,50.0,100.0
848185,835 LENOX ROAD,Brooklyn,40.655701,-73.9286144,77.7,Poorly managed,6,5,0,1,8,810.4,0.0,0.0,97.95918367346938,98.47619047619047,31.091562618236857,50.0,100.0
19800,142 EAST 117 STREET,Manhattan,40.7991739,-73.9414162,77.7,Poorly managed,24,2,16,6,52,561.0,0.0,0.0,90.61224489795919,90.0952380952381,52.32690124858116,50.0,100.0
60491,2201 DAVIDSON AVENUE,Bronx,40.8576868,-73.9057966,77.7,Poorly managed,40,7,20,13,86,352.2,0.0,0.0,84.08163265306122,83.61904761904762,70.10550105399709,50.0,100.0
284231,143 EAST 96 STREET,Brooklyn,40.6629519,-73.9231567,77.7,Poorly managed,38,6,25,7,77,387.5,0.0,0.0,84.89795918367346,85.33333333333333,67.09317923846868,50.0,100.0
268546,336 EAST 52 STREET,Brooklyn,40.6526214,-73.9288087,77.7,Poorly managed,1,0,1,0,2,866.0,0.0,0.0,100.0,99.61904761904762,26.362088535754825,50.0,100.0
694083,7-11 SEAGIRT AVENUE,Queens,40.5953252,-73.7419232,77.7,Poorly managed,50,15,16,19,104,135.7,0.0,2.0,80.0,80.19047619047619,88.5293055412238,50.0,84.61538461538461
658204,1819 GEORGE STREET,Queens,40.6997509,-73.9012845,77.7,Poorly managed,24,1,7,16,63,390.9,0.0,3.0,90.61224489795919,88.0,66.80973325766175,50.0,76.92307692307692
218921,173 CHAUNCEY STREET,Brooklyn,40.680659,-73.9283065,77.7,Poorly managed,5,0,3,2,12,807.9,0.0,0.0,98.36734693877551,97.71428571428571,31.311820982649586,50.0,100.0
44721,767 ADEE AVENUE,Bronx,40.8698927,-73.864586,77.7,Poorly managed,37,8,20,9,75,309.8,0.0,2.0,85.3061224489796,85.71428571428572,73.71594778660612,50.0,84.61538461538461
563279,106-43 156 STREET,Queens,40.696508,-73.7975262,77.7,Poorly managed,1,0,0,1,3,861.1,0.0,0.0,100.0,99.42857142857143,26.777725846297663,50.0,100.0
7876,2651 BROADWAY,Manhattan,40.7978674,-73.9699502,77.7,Poorly managed,2,0,0,2,6,845.5,0.0,0.0,99.59183673469387,98.85714285714286,28.109768311410832,50.0,100.0
359775,104 RALPH AVENUE,Brooklyn,40.6864366,-73.923685,77.8,Poorly managed,2,0,2,0,4,847.3,0.0,0.0,99.59183673469387,99.23809523809524,27.95119182746879,50.0,100.0
28040,1621 ST NICHOLAS AVENUE,Manhattan,40.8558757,-73.9293431,77.8,Poorly managed,2,0,0,2,6,839.6,0.0,0.0,99.59183673469387,98.85714285714286,28.60953461975029,50.0,100.0
19253,326 EAST 109 STREET,Manhattan,40.7918392,-73.9399167,77.8,Poorly managed,4,0,0,4,12,720.4,0.0,2.0,98.77551020408163,97.71428571428571,38.75783447663229,50.0,84.61538461538461
864860,1011 WASHINGTON AVENUE,Bronx,40.8264828,-73.9099636,77.8,Poorly managed,15,5,2,8,33,670.0,0.0,0.0,94.28571428571428,93.71428571428572,43.04380352904757,50.0,100.0
89477,740 KELLY STREET,Bronx,40.8167548,-73.8991276,77.8,Poorly managed,34,7,23,4,65,400.9,0.0,1.0,86.53061224489795,87.61904761904762,65.95994811091292,50.0,92.3076923076923
836669,2204 FULTON STREET,Brooklyn,40.6778974,-73.9083796,77.8,Poorly managed,48,8,22,18,106,228.6,0.0,0.0,80.81632653061224,79.80952380952381,80.62725164092188,50.0,100.0
846853,102-21 NICOLLS AVENUE,Queens,40.7451265,-73.8607002,77.8,Poorly managed,1,1,0,0,1,860.0,0.0,0.0,100.0,99.80952380952381,26.872871736662884,50.0,100.0
346686,3165 NOSTRAND AVENUE,Brooklyn,40.6066979,-73.9427375,77.8,Poorly managed,6,1,5,0,11,799.2,0.0,0.0,97.95918367346938,97.90476190476191,32.04880817253122,50.0,100.0
49231,719 BECK STREET,Bronx,40.8155258,-73.8999134,77.8,Poorly managed,21,6,4,11,47,589.0,0.0,0.0,91.83673469387756,91.04761904761904,49.94324631101021,50.0,100.0
292832,606 FLATBUSH AVENUE,Brooklyn,40.6586808,-73.960833,77.9,Poorly managed,6,1,4,1,12,787.6,0.0,0.0,97.95918367346938,97.71428571428571,33.040105940219455,50.0,100.0
339175,681 MONROE STREET,Brooklyn,40.6881256,-73.929492,77.9,Poorly managed,9,0,8,1,19,750.0,0.0,0.0,96.73469387755102,96.38095238095238,36.23723041997731,50.0,100.0
243833,377 ARGYLE ROAD,Brooklyn,40.6401085,-73.9658271,77.9,Poorly managed,7,2,5,0,12,779.5,0.0,0.0,97.55102040816327,97.71428571428571,33.72587968217935,50.0,100.0
178266,2249 83 STREET,Brooklyn,40.6030008,-73.9905072,77.9,Poorly managed,10,2,6,2,20,738.3,0.0,0.0,96.3265306122449,96.19047619047619,37.230419977298524,50.0,100.0
220166,2553 CHURCH AVENUE,Brooklyn,40.6509102,-73.9531182,77.9,Poorly managed,3,0,1,2,8,821.0,0.0,0.0,99.18367346938776,98.47619047619047,30.192962542565272,50.0,100.0
128981,317 4 AVENUE,Brooklyn,40.6740408,-73.9852265,77.9,Poorly managed,3,1,0,2,7,826.0,0.0,0.0,99.18367346938776,98.66666666666667,29.76730987514189,50.0,100.0
6066,926 AMSTERDAM AVENUE,Manhattan,40.8001747,-73.9663048,77.9,Poorly managed,7,0,7,0,14,775.3,0.0,0.0,97.55102040816327,97.33333333333334,34.08464407329333,50.0,100.0
347909,1275 EAST 5 STREET,Brooklyn,40.6197105,-73.9705095,77.9,Poorly managed,2,0,2,0,4,842.9,0.0,0.0,99.59183673469387,99.23809523809524,28.329294106819646,50.0,100.0
119272,751 WALTON AVENUE,Bronx,40.8249846,-73.9259469,77.9,Poorly managed,44,5,11,28,111,193.5,0.0,1.0,82.44897959183673,78.85714285714286,83.60876507820466,50.0,92.3076923076923
10485,240 EAST 2 STREET,Manhattan,40.7216072,-73.9818609,77.9,Poorly managed,14,11,0,3,20,527.3,0.0,4.0,94.6938775510204,96.19047619047619,55.19296254256527,50.0,69.23076923076923
253166,541 EAST 26 STREET,Brooklyn,40.6373778,-73.9517297,77.9,Poorly managed,1,0,0,1,3,849.0,0.0,0.0,100.0,99.42857142857143,27.809307604994327,50.0,100.0
27853,29 ST MARKS PLACE,Manhattan,40.7291122,-73.9882703,78.0,Poorly managed,6,1,5,0,11,786.8,0.0,0.0,97.95918367346938,97.90476190476191,33.107431394805374,50.0,100.0
56942,1402 CLAY AVENUE,Bronx,40.8370728,-73.9076581,78.0,Poorly managed,9,2,2,5,21,733.9,0.0,0.0,96.73469387755102,96.0,37.607832009080596,50.0,100.0
4172,2809 FREDERICK DOUGLASS BOULEVARD,Manhattan,40.8258382,-73.9400919,78.0,Poorly managed,39,6,27,6,78,178.5,0.0,4.0,84.48979591836735,85.14285714285714,84.89135722393384,50.0,69.23076923076923
840752,163 WEST 161 STREET,Bronx,40.8309384,-73.9312667,78.0,Poorly managed,38,13,10,15,78,97.2,0.0,6.0,84.89795918367346,85.14285714285714,91.8132803632236,50.0,53.84615384615385
287575,1315 EASTERN PARKWAY,Brooklyn,40.6688926,-73.9246423,78.0,Poorly managed,7,0,6,1,15,768.2,0.0,0.0,97.55102040816327,97.14285714285714,34.68785471055619,50.0,100.0
186209,304 ATLANTIC AVENUE,Brooklyn,40.6881878,-73.9887895,78.0,Poorly managed,7,5,1,1,10,782.3,0.0,0.0,97.55102040816327,98.09523809523809,33.48782948669442,50.0,100.0
27014,9 POST AVENUE,Manhattan,40.8625368,-73.9245458,78.0,Poorly managed,6,0,4,2,14,779.0,0.0,0.0,97.95918367346938,97.33333333333334,33.76844494892168,50.0,100.0
42185,547 WEST 147 STREET,Manhattan,40.8275852,-73.9485746,78.0,Poorly managed,3,0,0,3,9,812.0,0.0,0.0,99.18367346938776,98.28571428571429,30.959137343927356,50.0,100.0
134291,4222 8 AVENUE,Brooklyn,40.6453067,-73.9997333,78.1,Poorly managed,26,11,5,10,51,435.7,0.0,2.0,89.79591836734694,90.28571428571428,62.99659477866062,50.0,84.61538461538461
481131,37-58 79 STREET,Queens,40.7477327,-73.8870768,78.1,Poorly managed,5,5,0,0,5,802.7,0.0,0.0,98.36734693877551,99.04761904761905,31.751506155592423,50.0,100.0
79341,808 FREEMAN STREET,Bronx,40.830115,-73.897886,78.1,Poorly managed,2,0,0,2,6,779.7,0.0,1.0,99.59183673469387,98.85714285714286,33.71169125993191,50.0,92.3076923076923
805959,15 WEST 139 STREET,Manhattan,40.8162872,-73.9361771,78.1,Poorly managed,28,4,18,6,58,447.9,0.0,1.0,88.9795918367347,88.95238095238095,61.95881303713313,50.0,92.3076923076923
58790,739 COSTER STREET,Bronx,40.8151799,-73.8879125,78.1,Poorly managed,1,1,0,0,1,841.5,0.0,0.0,100.0,99.80952380952381,28.447786606129398,50.0,100.0
807175,920 PROSPECT AVENUE,Bronx,40.8216798,-73.9002907,78.1,Poorly managed,21,4,15,2,40,592.6,0.0,0.0,91.83673469387756,92.38095238095238,49.636776390465386,50.0,100.0
120629,2406 WEBSTER AVENUE,Bronx,40.8588536,-73.893511,78.1,Poorly managed,37,5,32,0,69,394.7,0.0,0.0,85.3061224489796,86.85714285714286,66.48097257900712,50.0,100.0
99253,1713 NELSON AVENUE,Bronx,40.848731,-73.916736,78.1,Poorly managed,26,5,12,9,56,507.9,0.0,0.0,89.79591836734694,89.33333333333333,56.844494892167994,50.0,100.0
382535,401 TROY AVENUE,Brooklyn,40.6647498,-73.9367654,78.1,Poorly managed,1,0,1,0,2,844.0,0.0,0.0,100.0,99.61904761904762,28.23496027241771,50.0,100.0
213255,1151 BRIGHTON BEACH AVENUE,Brooklyn,40.5778556,-73.9552718,78.2,Poorly managed,1,0,1,0,2,836.0,0.0,0.0,100.0,99.61904761904762,28.916004540295127,50.0,100.0
353250,744 PENNSYLVANIA AVENUE,Brooklyn,40.6591413,-73.8914294,78.2,Poorly managed,3,0,3,0,6,810.0,0.0,0.0,99.18367346938776,98.85714285714286,31.129398410896712,50.0,100.0
28350,35 ST NICHOLAS TERRACE,Manhattan,40.8134814,-73.9517176,78.2,Poorly managed,18,1,16,1,36,616.4,0.0,0.0,93.06122448979592,93.14285714285714,47.60877790389709,50.0,100.0
661741,1818 HARMAN STREET,Queens,40.7062291,-73.9121675,78.2,Poorly managed,1,0,1,0,2,835.0,0.0,0.0,100.0,99.61904761904762,29.001135073779803,50.0,100.0
424613,80-01 37 AVENUE,Queens,40.7498531,-73.8857559,78.2,Poorly managed,3,0,1,2,8,806.9,0.0,0.0,99.18367346938776,98.47619047619047,31.393303064699207,50.0,100.0
133308,4818 7 AVENUE,Brooklyn,40.6433523,-74.0053763,78.2,Poorly managed,11,6,3,2,18,721.0,0.0,0.0,95.91836734693877,96.57142857142857,38.70601589103292,50.0,100.0
122771,1163 WHEELER AVENUE,Bronx,40.8276963,-73.880213,78.2,Poorly managed,16,5,9,2,29,653.0,0.0,0.0,93.87755102040816,94.47619047619048,44.49489216799092,50.0,100.0
266783,500 EAST 49 STREET,Brooklyn,40.6495022,-73.9314464,78.2,Poorly managed,1,0,1,0,2,833.6,0.0,0.0,100.0,99.61904761904762,29.120317820658347,50.0,100.0
27361,807 RIVERSIDE DRIVE,Manhattan,40.8353133,-73.9465015,78.2,Poorly managed,7,4,1,2,12,764.7,0.0,0.0,97.55102040816327,97.71428571428571,34.98687570942111,50.0,100.0
342461,509 NEW JERSEY AVENUE,Brooklyn,40.6669272,-73.8932767,78.2,Poorly managed,1,1,0,0,1,840.6,0.0,0.0,100.0,99.80952380952381,28.52683638722232,50.0,100.0
8073,3565 BROADWAY,Manhattan,40.8274541,-73.9502115,78.2,Poorly managed,49,15,30,4,87,160.7,0.0,2.0,80.40816326530611,83.42857142857143,86.40749148694665,50.0,84.61538461538461
250414,524 EAST 22 STREET,Brooklyn,40.6394441,-73.9572807,78.2,Poorly managed,2,0,0,2,6,819.0,0.0,0.0,99.59183673469387,98.85714285714286,30.36322360953463,50.0,100.0
358168,438 PUTNAM AVENUE,Brooklyn,40.6845268,-73.9437127,78.2,Poorly managed,2,0,2,0,4,824.3,0.0,0.0,99.59183673469387,99.23809523809524,29.911376931808263,50.0,100.0
1005665,112 BARD AVENUE,Staten Island,40.6419176,-74.1087156,78.2,Poorly managed,2,2,0,0,2,826.0,0.0,0.0,99.59183673469387,99.61904761904762,29.76730987514189,50.0,100.0
119330,1114 WARD AVENUE,Bronx,40.8266165,-73.8765149,78.2,Poorly managed,2,0,0,2,6,817.0,0.0,0.0,99.59183673469387,98.85714285714286,30.533484676503974,50.0,100.0
97792,590 MORRIS PARK AVENUE,Bronx,40.8436618,-73.8695512,78.2,Poorly managed,2,0,0,2,6,819.0,0.0,0.0,99.59183673469387,98.85714285714286,30.36322360953463,50.0,100.0
604597,47-15 216 STREET,Queens,40.7568621,-73.7640808,78.2,Poorly managed,1,1,0,0,1,839.0,0.0,0.0,100.0,99.80952380952381,28.66061293984109,50.0,100.0
808360,1660 FULTON STREET,Brooklyn,40.6792517,-73.9341234,78.3,Poorly managed,8,0,5,3,19,734.0,0.0,0.0,97.14285714285714,96.38095238095238,37.59931895573213,50.0,100.0
87089,2112 HONEYWELL AVENUE,Bronx,40.8452697,-73.881891,78.3,Poorly managed,32,1,28,3,66,429.1,0.0,0.0,87.34693877551021,87.42857142857143,63.55252295944691,50.0,100.0
958188,401 EAST 120 STREET,Manhattan,40.7987273,-73.9328675,78.3,Poorly managed,11,4,3,4,22,701.2,0.0,0.0,95.91836734693877,95.80952380952381,40.38734392735528,50.0,100.0
1006342,21-17 BIRDSALL AVENUE,Queens,40.6068245,-73.7537671,78.3,Poorly managed,2,0,2,0,4,818.6,0.0,0.0,99.59183673469387,99.23809523809524,30.401059402194484,50.0,100.0
710831,51 ARNOLD STREET,Staten Island,40.6389336,-74.0901581,78.3,Poorly managed,13,1,2,10,35,604.3,0.0,1.0,95.10204081632652,93.33333333333333,48.643586833144155,50.0,92.3076923076923
290453,36 EUCLID AVENUE,Brooklyn,40.6877231,-73.8756363,78.3,Poorly managed,2,0,0,2,6,810.0,0.0,0.0,99.59183673469387,98.85714285714286,31.129398410896712,50.0,100.0
359185,281 QUINCY STREET,Brooklyn,40.6873291,-73.9494688,78.3,Poorly managed,42,10,19,13,87,253.4,0.0,1.0,83.26530612244898,83.42857142857143,78.50926976920167,50.0,92.3076923076923
331141,651 MADISON STREET,Brooklyn,40.6872042,-73.9310038,78.3,Poorly managed,42,6,25,11,89,153.3,0.0,3.0,83.26530612244898,83.04761904761905,87.03178206583428,50.0,76.92307692307692
219567,546 CHESTER STREET,Brooklyn,40.6581053,-73.9089798,78.3,Poorly managed,2,0,2,0,4,818.3,0.0,0.0,99.59183673469387,99.23809523809524,30.419977298524405,50.0,100.0
99023,801 NEILL AVENUE,Bronx,40.8509097,-73.8640572,78.3,Poorly managed,1,0,0,1,3,825.0,0.0,0.0,100.0,99.42857142857143,29.852440408626567,50.0,100.0
11696,526 EAST 11 STREET,Manhattan,40.7277168,-73.9806794,78.3,Poorly managed,7,1,3,3,16,749.5,0.0,0.0,97.55102040816327,96.95238095238096,36.27979568671964,50.0,100.0
213519,513 BRISTOL STREET,Brooklyn,40.6584515,-73.909502,78.3,Poorly managed,52,3,36,13,114,102.3,0.0,1.0,79.18367346938776,78.28571428571429,91.37911464245177,50.0,92.3076923076923
22792,182 HESTER STREET,Manhattan,40.7180898,-73.998171,78.3,Poorly managed,4,0,2,2,10,783.0,0.0,0.0,98.77551020408163,98.09523809523809,33.42792281498298,50.0,100.0
214857,55A BROOKLYN AVENUE,Brooklyn,40.6777528,-73.9438951,78.3,Poorly managed,3,0,1,2,8,797.0,0.0,0.0,99.18367346938776,98.47619047619047,32.2360953461975,50.0,100.0
81693,1410 GRAND CONCOURSE,Bronx,40.8389818,-73.913033,78.3,Poorly managed,19,3,11,5,40,594.0,0.0,0.0,92.65306122448979,92.38095238095238,49.517593643586835,50.0,100.0
19014,349 EAST 104 STREET,Manhattan,40.7886944,-73.9413099,78.3,Poorly managed,1,0,0,1,3,827.3,0.0,0.0,100.0,99.42857142857143,29.653802497162317,50.0,100.0
806886,20 RICHMAN PLAZA,Bronx,40.8518696,-73.9226493,78.3,Poorly managed,49,2,22,25,121,107.6,0.0,1.0,80.40816326530611,76.95238095238095,90.92639871740032,50.0,92.3076923076923
116673,2500 UNIVERSITY AVENUE,Bronx,40.8649142,-73.9032014,78.3,Poorly managed,7,0,5,2,16,746.9,0.0,0.0,97.55102040816327,96.95238095238096,36.504783525214854,50.0,100.0
183708,556 ALBANY AVENUE,Brooklyn,40.661156,-73.9401714,78.4,Poorly managed,33,2,26,5,69,406.0,0.0,0.0,86.93877551020408,86.85714285714286,65.52213393870602,50.0,100.0
749554,336 JERSEY STREET,Staten Island,40.6398415,-74.0874677,78.4,Poorly managed,36,4,24,8,76,366.5,0.0,0.0,85.71428571428572,85.52380952380952,68.88151576006287,50.0,100.0
347786,781 OCEAN AVENUE,Brooklyn,40.6436938,-73.9594617,78.4,Poorly managed,16,1,5,10,41,607.4,0.0,0.0,93.87755102040816,92.19047619047619,48.37684449489217,50.0,100.0
108780,3910 SETON AVENUE,Bronx,40.8894559,-73.8363356,78.4,Poorly managed,20,3,7,10,47,561.7,0.0,0.0,92.24489795918367,91.04761904761904,52.26508026593157,50.0,100.0
121374,160 WEST 231 STREET,Bronx,40.8780778,-73.903222,78.4,Poorly managed,14,0,4,10,38,541.1,0.0,2.0,94.6938775510204,92.76190476190476,54.02039078968704,50.0,84.61538461538461
220202,2831 CHURCH AVENUE,Brooklyn,40.651049,-73.9503576,78.4,Poorly managed,13,2,8,3,27,668.0,0.0,0.0,95.10204081632652,94.85714285714286,43.21793416572077,50.0,100.0
137926,252 12 STREET,Brooklyn,40.6677228,-73.9890633,78.4,Poorly managed,2,0,1,1,5,806.5,0.0,0.0,99.59183673469387,99.04761904761905,31.42735527809308,50.0,100.0
129193,520 4 AVENUE,Brooklyn,40.6677888,-73.9912874,78.4,Poorly managed,7,1,5,1,14,749.8,0.0,0.0,97.55102040816327,97.33333333333334,36.25851305334847,50.0,100.0
427617,50-15 39 STREET,Queens,40.7377905,-73.9270723,78.4,Poorly managed,3,2,0,1,5,801.0,0.0,0.0,99.18367346938776,99.04761904761905,31.8955732122588,50.0,100.0
349625,1448 PACIFIC STREET,Brooklyn,40.6769888,-73.9420174,78.4,Poorly managed,17,3,9,5,36,611.4,0.0,0.0,93.46938775510203,93.14285714285714,48.03845062429058,50.0,100.0
19425,86 EAST 111 STREET,Manhattan,40.7961598,-73.9462657,78.4,Poorly managed,2,0,0,2,6,804.7,0.0,0.0,99.59183673469387,98.85714285714286,31.583427922814987,50.0,100.0
314872,82 HULL STREET,Brooklyn,40.6790704,-73.9132055,78.4,Poorly managed,2,0,2,0,4,813.0,0.0,0.0,99.59183673469387,99.23809523809524,30.87400681044268,50.0,100.0
324069,141 LENOX ROAD,Brooklyn,40.6542211,-73.9548782,78.5,Poorly managed,2,0,1,1,5,800.8,0.0,0.0,99.59183673469387,99.04761904761905,31.90976163450624,50.0,100.0
46757,3070 BAINBRIDGE AVENUE,Bronx,40.8734278,-73.8793749,78.5,Poorly managed,32,6,20,6,64,240.0,0.0,4.0,87.34693877551021,87.80952380952381,79.65380249716232,50.0,69.23076923076923
228675,836 CROWN STREET,Brooklyn,40.6648554,-73.9295166,78.5,Poorly managed,39,9,23,7,76,338.2,0.0,0.0,84.48979591836735,85.52380952380952,71.29524530205575,50.0,100.0
362340,554 RIVERDALE AVENUE,Brooklyn,40.6627351,-73.8953235,78.5,Poorly managed,10,2,6,2,20,704.3,0.0,0.0,96.3265306122449,96.19047619047619,40.12485811577753,50.0,100.0
243036,428 WESTMINSTER ROAD,Brooklyn,40.6383741,-73.967017,78.5,Poorly managed,2,0,0,2,6,797.0,0.0,0.0,99.59183673469387,98.85714285714286,32.2360953461975,50.0,100.0
94225,2009 MAPES AVENUE,Bronx,40.8450748,-73.8872947,78.5,Poorly managed,1,0,1,0,2,818.0,0.0,0.0,100.0,99.61904761904762,30.448354143019294,50.0,100.0
808237,1848 EASTERN PARKWAY,Brooklyn,40.6755803,-73.9077843,78.5,Poorly managed,52,5,29,18,117,127.0,0.0,0.0,79.18367346938776,77.71428571428571,89.27355278093077,50.0,100.0
341486,206 NASSAU AVENUE,Brooklyn,40.725383,-73.9446127,78.5,Poorly managed,1,0,1,0,2,816.3,0.0,0.0,100.0,99.61904761904762,30.59023836549376,50.0,100.0
315788,22 IRVING AVENUE,Brooklyn,40.705138,-73.9256436,78.5,Poorly managed,1,0,1,0,2,815.9,0.0,0.0,100.0,99.61904761904762,30.62996594778661,50.0,100.0
116318,529 UNDERHILL AVENUE,Bronx,40.8162875,-73.8592037,78.5,Poorly managed,3,0,0,3,9,782.4,0.0,0.0,99.18367346938776,98.28571428571429,33.482096790836856,50.0,100.0
348150,1802 OCEAN PARKWAY,Brooklyn,40.6044624,-73.9675524,78.5,Poorly managed,8,0,3,5,21,712.5,0.0,0.0,97.14285714285714,96.0,39.43030106480732,50.0,100.0
955957,396 LEFFERTS AVENUE,Brooklyn,40.6622276,-73.9483128,78.5,Poorly managed,1,0,0,1,3,816.4,0.0,0.0,100.0,99.42857142857143,30.584562996594787,50.0,100.0
292894,730 FLATBUSH AVENUE,Brooklyn,40.6550053,-73.9600747,78.5,Poorly managed,41,5,20,15,90,192.9,0.0,2.0,83.6734693877551,82.85714285714285,83.66531934331829,50.0,84.61538461538461
321237,313 KNICKERBOCKER AVENUE,Brooklyn,40.7016448,-73.9228344,78.5,Poorly managed,3,0,1,2,8,785.7,0.0,0.0,99.18367346938776,98.47619047619047,33.200908059023845,50.0,100.0
4188,2852 FREDERICK DOUGLASS BOULEVARD,Manhattan,40.8273824,-73.9381899,78.5,Poorly managed,15,0,9,6,36,623.7,0.0,0.0,94.28571428571428,93.14285714285714,46.9860804110162,50.0,100.0
1868,1674 3 AVENUE,Manhattan,40.7838571,-73.9507063,78.5,Poorly managed,6,2,2,2,12,754.0,0.0,0.0,97.95918367346938,97.71428571428571,35.89670828603859,50.0,100.0
642903,61-11 CATALPA AVENUE,Queens,40.7043483,-73.8950273,78.5,Poorly managed,7,5,0,2,11,659.0,0.0,2.0,97.55102040816327,97.90476190476191,43.98410896708287,50.0,84.61538461538461
357296,805 PROSPECT PLACE,Brooklyn,40.6745221,-73.9496335,78.5,Poorly managed,28,5,15,7,56,470.9,0.0,0.0,88.9795918367347,89.33333333333333,59.99638840160975,50.0,100.0
486571,137-01 83 AVENUE,Queens,40.7128887,-73.8206272,78.6,Poorly managed,4,0,4,0,8,772.7,0.0,0.0,98.77551020408163,98.47619047619047,34.30244556805283,50.0,100.0
6225,351 AUDUBON AVENUE,Manhattan,40.8495888,-73.9313558,78.6,Poorly managed,15,2,6,7,35,571.7,0.0,1.0,94.28571428571428,93.33333333333333,51.41965299173018,50.0,92.3076923076923
7482,246 BRADHURST AVENUE,Manhattan,40.8291557,-73.9385641,78.6,Poorly managed,3,0,1,2,8,779.7,0.0,0.0,99.18367346938776,98.47619047619047,33.70885357548241,50.0,100.0
249577,550 EAST 21 STREET,Brooklyn,40.6404903,-73.9584259,78.6,Poorly managed,34,2,11,21,87,202.4,0.0,3.0,86.53061224489795,83.42857142857143,82.85263178734526,50.0,76.92307692307692
66004,620 EAST 178 STREET,Bronx,40.8465865,-73.8923993,78.6,Poorly managed,23,4,11,8,50,475.4,0.0,1.0,91.02040816326532,90.47619047619048,59.611642613912764,50.0,92.3076923076923
1488,627 2 AVENUE,Manhattan,40.7451369,-73.9759792,78.6,Poorly managed,8,0,5,3,19,715.0,0.0,0.0,97.14285714285714,96.38095238095238,39.21679909194098,50.0,100.0
373586,1149 ST JOHNS PLACE,Brooklyn,40.6713748,-73.9402091,78.6,Poorly managed,51,0,36,14,114,137.7,0.0,0.0,79.59183673469387,78.28571428571429,88.36226911567434,50.0,100.0
440761,41-16 51 STREET,Queens,40.7454941,-73.9137722,78.6,Poorly managed,49,10,23,16,104,91.1,0.0,2.0,80.40816326530611,80.19047619047619,92.32879303821416,50.0,84.61538461538461
75996,1171 ELDER AVENUE,Bronx,40.8280166,-73.8793344,78.6,Poorly managed,2,0,0,2,6,794.0,0.0,0.0,99.59183673469387,98.85714285714286,32.491486946651534,50.0,100.0
561178,40-01 150 STREET,Queens,40.7635632,-73.8141517,78.6,Poorly managed,7,3,3,1,12,741.0,0.0,0.0,97.55102040816327,97.71428571428571,37.00340522133939,50.0,100.0
58783,719 COSTER STREET,Bronx,40.8149356,-73.8878479,78.7,Poorly managed,2,0,2,0,4,792.5,0.0,0.0,99.59183673469387,99.23809523809524,32.61918274687855,50.0,100.0
629141,94-20 ASTORIA BOULEVARD,Queens,40.7625688,-73.8744967,78.7,Poorly managed,27,0,10,16,68,432.8,0.0,0.0,89.38775510204083,87.04761904761905,63.240635641316686,50.0,100.0
346886,621 NOSTRAND AVENUE,Brooklyn,40.6757408,-73.9496506,78.7,Poorly managed,1,0,0,1,3,802.0,0.0,0.0,100.0,99.42857142857143,31.81044267877412,50.0,100.0
958172,1939 WEST FARMS ROAD,Bronx,40.8394175,-73.8814315,78.7,Poorly managed,1,0,0,1,3,805.0,0.0,0.0,100.0,99.42857142857143,31.555051078320094,50.0,100.0
4477,680 8 AVENUE,Manhattan,40.7578772,-73.9886803,78.7,Poorly managed,18,2,3,13,47,558.5,0.0,0.0,93.06122448979592,91.04761904761904,52.536825405014966,50.0,100.0
396832,190 WILSON AVENUE,Brooklyn,40.6991694,-73.9235297,78.7,Poorly managed,3,0,0,3,9,724.5,0.0,1.0,99.18367346938776,98.28571428571429,38.405818746639596,50.0,92.3076923076923
474751,41-41 76 STREET,Queens,40.7443391,-73.8887788,78.7,Poorly managed,4,0,1,3,11,715.0,0.0,1.0,98.77551020408163,97.90476190476191,39.21679909194098,50.0,92.3076923076923
854738,2072 OCEAN AVENUE,Brooklyn,40.6113637,-73.9541292,78.7,Poorly managed,7,6,0,1,9,742.0,0.0,0.0,97.55102040816327,98.28571428571429,36.91827468785471,50.0,100.0
5447,125 ALLEN STREET,Manhattan,40.7199311,-73.99044,78.7,Poorly managed,36,10,16,10,72,359.8,0.0,0.0,85.71428571428572,86.28571428571429,69.4543538187125,50.0,100.0
363145,316 ROCKAWAY PARKWAY,Brooklyn,40.6596608,-73.9190048,78.7,Poorly managed,4,1,1,2,9,763.8,0.0,0.0,98.77551020408163,98.28571428571429,35.062429057888764,50.0,100.0
4095,2591 FREDERICK DOUGLASS BOULEVARD,Manhattan,40.8186331,-73.9453479,78.7,Poorly managed,5,2,2,1,9,755.2,0.0,0.0,98.36734693877551,98.28571428571429,35.7939380924625,50.0,100.0
21456,240 ELIZABETH STREET,Manhattan,40.7232525,-73.9936757,78.7,Poorly managed,1,0,0,1,3,800.8,0.0,0.0,100.0,99.42857142857143,31.916855845629964,50.0,100.0
302416,597 GRAND AVENUE,Brooklyn,40.6774032,-73.9617305,78.7,Poorly managed,5,0,4,1,11,751.8,0.0,0.0,98.36734693877551,97.90476190476191,36.08399545970489,50.0,100.0
21518,2 ELLWOOD STREET,Manhattan,40.8589792,-73.928154,78.7,Poorly managed,19,2,12,5,41,568.6,0.0,0.0,92.65306122448979,92.19047619047619,51.68321642345602,50.0,100.0
51036,1136 BOYNTON AVENUE,Bronx,40.8273451,-73.8776446,78.7,Poorly managed,4,0,2,2,10,764.9,0.0,0.0,98.77551020408163,98.09523809523809,34.97091373439274,50.0,100.0
323187,84 LAWRENCE AVENUE,Brooklyn,40.6293953,-73.9756858,78.8,Poorly managed,43,4,28,10,90,251.9,0.0,0.0,82.85714285714285,82.85714285714285,78.63963875043183,50.0,100.0
327375,5 LINDEN BOULEVARD,Brooklyn,40.6524303,-73.9588293,78.8,Poorly managed,1,0,1,0,2,801.1,0.0,0.0,100.0,99.61904761904762,31.886114264093834,50.0,100.0
946825,2913B CRUGER AVENUE,Bronx,40.868399,-73.8664945,78.8,Poorly managed,23,12,9,2,36,547.5,0.0,0.0,91.02040816326532,93.14285714285714,53.47616345062429,50.0,100.0
473735,97-52 75 STREET,Queens,40.6797541,-73.8627476,78.8,Poorly managed,28,4,13,10,60,444.3,0.0,0.0,88.9795918367347,88.57142857142857,62.25956376353652,50.0,100.0
916123,508 EAST 163 STREET,Bronx,40.8241139,-73.9097103,78.8,Poorly managed,2,2,0,0,2,795.6,0.0,0.0,99.59183673469387,99.61904761904762,32.35906167234204,50.0,100.0
74509,1961 VYSE AVENUE,Bronx,40.841579,-73.8827902,78.8,Poorly managed,13,7,0,6,25,601.4,0.0,1.0,95.10204081632652,95.23809523809523,48.89127614723529,50.0,92.3076923076923
118821,2132 WALLACE AVENUE,Bronx,40.8540335,-73.864358,78.8,Poorly managed,52,5,42,5,104,148.9,0.0,0.0,79.18367346938776,80.19047619047619,87.4113892874735,50.0,100.0
366776,220 SCHAEFER STREET,Brooklyn,40.6905165,-73.9066494,78.8,Poorly managed,3,0,0,0,0,789.6,0.0,0.0,99.18367346938776,100.0,32.867062829672165,50.0,100.0
283460,945 EAST 94 STREET,Brooklyn,40.6463508,-73.9074067,78.8,Poorly managed,4,0,2,2,10,758.2,0.0,0.0,98.77551020408163,98.09523809523809,35.53845062429058,50.0,100.0
213439,158 BRISTOL STREET,Brooklyn,40.6674923,-73.9123987,78.8,Poorly managed,1,0,1,0,2,801.0,0.0,0.0,100.0,99.61904761904762,31.8955732122588,50.0,100.0
7481,242 BRADHURST AVENUE,Manhattan,40.8290268,-73.9386365,78.8,Poorly managed,1,0,1,0,2,801.6,0.0,0.0,100.0,99.61904761904762,31.84139923640492,50.0,100.0
408298,38-18 23 AVENUE,Queens,40.7711206,-73.9086124,78.8,Poorly managed,3,0,2,1,7,774.0,0.0,0.0,99.18367346938776,98.66666666666667,34.19409761634506,50.0,100.0
928974,806 EAST 216 STREET,Bronx,40.8803208,-73.8608581,78.8,Poorly managed,9,5,4,0,13,709.0,0.0,0.0,96.73469387755102,97.52380952380952,39.72758229284904,50.0,100.0
55,1132 1 AVENUE,Manhattan,40.7615323,-73.9602094,78.8,Poorly managed,2,0,1,1,5,783.2,0.0,0.0,99.59183673469387,99.04761904761905,33.41089670828604,50.0,100.0
34940,101 WEST 72 STREET,Manhattan,40.7777505,-73.9788523,78.9,Poorly managed,34,1,16,17,84,327.2,0.0,0.0,86.53061224489795,84.0,72.22875889371834,50.0,100.0
944654,805 EAST NEW YORK AVENUE,Brooklyn,40.6627127,-73.9360104,78.9,Poorly managed,8,0,0,8,24,681.8,0.0,0.0,97.14285714285714,95.42857142857143,42.04738933030647,50.0,100.0
334117,333 MC DONALD AVENUE,Brooklyn,40.6466306,-73.9796218,78.9,Poorly managed,51,2,39,10,110,134.8,0.0,0.0,79.59183673469387,79.04761904761905,88.60872385276471,50.0,100.0
111669,2001 STORY AVENUE,Bronx,40.8252734,-73.8544947,78.9,Poorly managed,10,0,2,8,28,657.9,0.0,0.0,96.3265306122449,94.66666666666667,44.07675101822795,50.0,100.0
5711,1901 AMSTERDAM AVENUE,Manhattan,40.83106,-73.9428552,78.9,Poorly managed,18,4,10,4,36,578.6,0.0,0.0,93.06122448979592,93.14285714285714,50.82750540075427,50.0,100.0
810286,44-74 21 STREET,Queens,40.7476335,-73.9478531,78.9,Poorly managed,31,4,19,8,66,397.8,0.0,0.0,87.75510204081633,87.42857142857143,66.22268728717367,50.0,100.0
115723,2502 TRATMAN AVENUE,Bronx,40.8391438,-73.8450318,78.9,Poorly managed,50,12,23,15,103,156.8,0.0,0.0,80.0,80.38095238095238,86.74091940976163,50.0,100.0
41492,117 WEST 141 STREET,Manhattan,40.8186356,-73.9392566,78.9,Poorly managed,30,1,8,21,80,276.5,0.0,2.0,88.16326530612245,84.76190476190476,76.54674168653499,50.0,84.61538461538461
421479,84-10 34 AVENUE,Queens,40.7537036,-73.8826633,78.9,Poorly managed,9,2,5,2,18,689.2,0.0,0.0,96.73469387755102,96.57142857142857,41.410734554888926,50.0,100.0
241804,1501 EAST 10 STREET,Brooklyn,40.612207,-73.9636335,78.9,Poorly managed,1,0,0,1,3,789.2,0.0,0.0,100.0,99.42857142857143,32.895856980703755,50.0,100.0
1280,2291 1/2 2 AVENUE,Manhattan,40.7981589,-73.9373575,78.9,Poorly managed,1,0,0,1,3,794.1,0.0,0.0,100.0,99.42857142857143,32.47932544186801,50.0,100.0
100114,1020 OGDEN AVENUE,Bronx,40.8334401,-73.9288248,79.0,Poorly managed,54,7,16,24,111,103.5,0.0,0.0,78.36734693877551,78.85714285714286,91.27739456910852,50.0,100.0
338053,640 MILLER AVENUE,Brooklyn,40.6648102,-73.8895097,79.0,Poorly managed,40,11,25,4,73,263.4,0.0,1.0,84.08163265306122,86.09523809523809,77.663876276958,50.0,92.3076923076923
351098,352 PALMETTO STREET,Brooklyn,40.6980634,-73.9121205,79.0,Poorly managed,45,7,18,20,103,189.1,0.0,0.0,82.04081632653062,80.38095238095238,83.98937895248906,50.0,100.0
306718,1339 HANCOCK STREET,Brooklyn,40.6945616,-73.9092438,79.0,Poorly managed,19,4,10,4,36,566.1,0.0,0.0,92.65306122448979,93.14285714285714,51.89178963299281,50.0,100.0
749553,319A JERSEY STREET,Staten Island,40.6402564,-74.0868485,79.0,Poorly managed,4,2,2,0,6,758.0,0.0,0.0,98.77551020408163,98.85714285714286,35.55618615209989,50.0,100.0
245154,1531 EAST 15 STREET,Brooklyn,40.612101,-73.9586705,79.0,Poorly managed,2,0,1,1,5,774.4,0.0,0.0,99.59183673469387,99.04761904761905,34.15685300794552,50.0,100.0
372153,338 SOUTH 3 STREET,Brooklyn,40.7091024,-73.9538203,79.0,Poorly managed,29,7,16,6,57,435.6,0.0,0.0,88.57142857142857,89.14285714285714,63.00064861358846,50.0,100.0
428220,108-77 41 AVENUE,Queens,40.7510272,-73.8558082,79.0,Poorly managed,2,0,0,2,6,770.0,0.0,0.0,99.59183673469387,98.85714285714286,34.53461975028377,50.0,100.0
14418,345 EAST 56 STREET,Manhattan,40.7580065,-73.9636406,79.0,Poorly managed,4,1,2,1,8,747.2,0.0,0.0,98.77551020408163,98.47619047619047,36.471984315344145,50.0,100.0
116943,2328 UNIVERSITY AVENUE,Bronx,40.8614223,-73.9056901,79.0,Poorly managed,4,0,3,1,9,746.3,0.0,0.0,98.77551020408163,98.28571428571429,36.54937570942111,50.0,100.0
110170,567 SOUTHERN BOULEVARD,Bronx,40.8127782,-73.902981,79.0,Poorly managed,43,8,12,23,101,75.8,0.0,3.0,82.85714285714285,80.76190476190477,93.63345224582456,50.0,76.92307692307692
126640,86 1 PLACE,Brooklyn,40.6802312,-73.9977106,79.0,Poorly managed,10,3,6,1,18,680.5,0.0,0.0,96.3265306122449,96.57142857142857,42.15380249716232,50.0,100.0
877297,21-05 DIX AVENUE,Queens,40.6060622,-73.7541624,79.0,Poorly managed,2,1,0,1,4,773.1,0.0,0.0,99.59183673469387,99.23809523809524,34.26976920166478,50.0,100.0
37810,249 WEST 109 STREET,Manhattan,40.8034327,-73.9662598,79.0,Poorly managed,39,1,35,3,80,294.0,0.0,0.0,84.48979591836735,84.76190476190476,75.05959137343928,50.0,100.0
27828,115 ST MARKS PLACE,Manhattan,40.7271134,-73.9836237,79.0,Poorly managed,7,4,2,1,11,722.0,0.0,0.0,97.55102040816327,97.90476190476191,38.62088535754824,50.0,100.0
19233,24 EAST 109 STREET,Manhattan,40.7954994,-73.9485849,79.1,Poorly managed,1,0,0,1,3,780.8,0.0,0.0,100.0,99.42857142857143,33.6194665153235,50.0,100.0
355164,1180 PRESIDENT STREET,Brooklyn,40.6678421,-73.9514517,79.1,Poorly managed,5,0,3,2,12,728.5,0.0,0.0,98.36734693877551,97.71428571428571,38.063989784335995,50.0,100.0
162037,263 60 STREET,Brooklyn,40.642689,-74.0209679,79.1,Poorly managed,10,0,1,9,29,550.2,0.0,2.0,96.3265306122449,94.47619047619048,53.247858838097216,50.0,84.61538461538461
68025,769 EAST 214 STREET,Bronx,40.8793976,-73.8623355,79.1,Poorly managed,7,0,1,6,20,600.7,0.0,2.0,97.55102040816327,96.19047619047619,48.95066051633782,50.0,84.61538461538461
40680,508 WEST 134 STREET,Manhattan,40.8183843,-73.9536866,79.1,Poorly managed,1,0,0,1,3,782.0,0.0,0.0,100.0,99.42857142857143,33.51305334846766,50.0,100.0
183110,645 ALABAMA AVENUE,Brooklyn,40.6603109,-73.8947506,79.1,Poorly managed,1,0,0,0,0,787.5,0.0,0.0,100.0,100.0,33.0441597751473,50.0,100.0
346607,2978 NOSTRAND AVENUE,Brooklyn,40.6116366,-73.9443361,79.1,Poorly managed,1,0,1,0,2,784.0,0.0,0.0,100.0,99.61904761904762,33.342792281498305,50.0,100.0
805729,344 WEST 72 STREET,Manhattan,40.7801917,-73.9865173,79.1,Poorly managed,1,0,1,0,2,785.3,0.0,0.0,100.0,99.61904761904762,33.22928490351873,50.0,100.0
107767,2105 RYER AVENUE,Bronx,40.8537028,-73.9008392,79.1,Poorly managed,12,0,1,11,35,523.0,0.0,2.0,95.51020408163265,93.33333333333333,55.56337495270526,50.0,84.61538461538461
54276,1818 BUSSING AVENUE,Bronx,40.8941984,-73.8481624,79.1,Poorly managed,15,5,10,0,25,615.2,0.0,0.0,94.28571428571428,95.23809523809523,47.70856980703746,50.0,100.0
119283,923 WALTON AVENUE,Bronx,40.8287323,-73.9235976,79.1,Poorly managed,4,1,3,0,7,749.7,0.0,0.0,98.77551020408163,98.66666666666667,36.26155342954436,50.0,100.0
153931,1016 50 STREET,Brooklyn,40.6379177,-73.9988686,79.2,Poorly managed,9,1,8,0,17,679.3,0.0,0.0,96.73469387755102,96.76190476190476,42.25425652667424,50.0,100.0
284128,109 EAST 96 STREET,Brooklyn,40.6635287,-73.9238013,79.2,Poorly managed,47,10,20,17,101,167.4,0.0,0.0,81.22448979591836,80.76190476190477,85.83087400681045,50.0,100.0
37307,317 WEST 99 STREET,Manhattan,40.7978544,-73.9728107,79.2,Poorly managed,1,0,0,1,3,772.4,0.0,0.0,100.0,99.42857142857143,34.326522890654566,50.0,100.0
366601,801 SARATOGA AVENUE,Brooklyn,40.6610907,-73.9150347,79.2,Poorly managed,7,3,4,0,11,706.9,0.0,0.0,97.55102040816327,97.90476190476191,39.90474583550634,50.0,100.0
65955,219 EAST 178 STREET,Bronx,40.850541,-73.904126,79.2,Poorly managed,6,0,3,3,15,703.2,0.0,0.0,97.95918367346938,97.14285714285714,40.21871998602986,50.0,100.0
120346,3505 WAYNE AVENUE,Bronx,40.881081,-73.8777663,79.2,Poorly managed,55,16,28,11,105,103.0,0.0,0.0,77.9591836734694,80.0,91.31668558456299,50.0,100.0
178163,1926 83 STREET,Brooklyn,40.6070388,-73.9981129,79.2,Poorly managed,13,5,1,7,28,527.5,0.0,2.0,95.10204081632652,94.66666666666667,55.17877412031782,50.0,84.61538461538461
10966,504 EAST 6 STREET,Manhattan,40.7250795,-73.9836133,79.2,Poorly managed,1,0,0,1,3,776.0,0.0,0.0,100.0,99.42857142857143,34.02753787691854,50.0,100.0
36149,351 WEST 84 STREET,Manhattan,40.7884772,-73.9803982,79.2,Poorly managed,1,0,0,1,3,772.3,0.0,0.0,100.0,99.42857142857143,34.33598183881953,50.0,100.0
60721,2937 DEWITT PLACE,Bronx,40.8689367,-73.8464086,79.2,Poorly managed,2,0,2,0,4,762.0,0.0,0.0,99.59183673469387,99.23809523809524,35.215664018161185,50.0,100.0
938280,184 NOLL STREET,Brooklyn,40.7039438,-73.9297782,79.2,Poorly managed,22,2,19,1,43,464.5,0.0,1.0,91.42857142857143,91.80952380952381,60.54450156907259,50.0,92.3076923076923
899835,255-08 148 AVENUE,Queens,40.654899,-73.7337855,79.2,Poorly managed,2,0,2,0,4,763.7,0.0,0.0,99.59183673469387,99.23809523809524,35.0715969614948,50.0,100.0
889796,871 EAST 179 STREET,Bronx,40.8443357,-73.8838226,79.2,Poorly managed,32,6,24,2,60,389.1,0.0,0.0,87.34693877551021,88.57142857142857,66.957191503162,50.0,100.0
27590,165 SHERMAN AVENUE,Manhattan,40.8645197,-73.9223743,79.3,Poorly managed,5,1,1,2,9,723.1,0.0,0.0,98.36734693877551,98.28571428571429,38.527467780980984,50.0,100.0
338108,752 MILLER AVENUE,Brooklyn,40.6620971,-73.8882022,79.3,Poorly managed,3,0,3,0,6,746.4,0.0,0.0,99.18367346938776,98.85714285714286,36.545828603859256,50.0,100.0
299745,194 GELSTON AVENUE,Brooklyn,40.6168834,-74.0292263,79.3,Poorly managed,1,0,1,0,2,769.7,0.0,0.0,100.0,99.61904761904762,34.56015891032918,50.0,100.0
